
GNRMC,015107.00,A,3412.76124010,N,10849.67444051,E,0.003,114.8,010323,3.4,W,A,V*4C  //第2个参数A，表示定位有效

$GPGSV,4,3,14,196,31,164,,8,25,189,,3,24,243,,195,24,126,,1*68//第三个参数14表示可视卫星数

$GNGGA,160552.000,2636.39260,N,10639.79297,E,1,08,2.05,1222.6,M,-26.4,M,,*60//第8个参数08表示参与定位的卫星数


$GNGGA,160547.000,2636.39229,N,10639.79359,E,1,08,2.05,1221.5,M,-26.4,M,,*6A
$GNGSA,A,3,199,196,28,,,,,,,,,,3.73,2.05,3.11,1*07
$GNGSA,A,3,40,07,20,10,59,,,,,,,,3.73,2.05,3.11,4*0B
$GPGSV,4,1,13,16,76,316,,193,62,154,,194,55,57,,26,52,27,,1*66
$GPGSV,4,2,13,199,51,140,23,31,45,51,,27,40,163,27,4,39,321,,1*58
$GPGSV,4,3,13,196,34,163,12,3,30,254,,28,24,79,17,32,12,141,,1*5E
$GPGSV,4,4,13,195,,,29,1*50
$BDGSV,4,1,11,40,69,160,11,7,65,190,16,6,64,36,,9,60,357,,1*78
$BDGSV,4,2,11,20,56,234,13,10,55,201,14,46,46,304,,37,44,33,,1*41
$BDGSV,4,3,11,59,41,124,33,28,24,91,,1*48
$BDGSV,4,4,11,40,69,160,16,9*46
$GNRMC,160547.000,A,2636.39229,N,10639.79359,E,1.336,279.65,270723,,,A,U*3D
$GNZDA,160547.000,27,07,2023,00,00*48
$GNTXT,01,01,02,ANT_OPEN,B1,*30
$GNGGA,160548.000,2636.39242,N,10639.79345,E,1,08,2.05,1222.2,M,-26.4,M,,*61
$GNGSA,A,3,199,196,28,,,,,,,,,,3.73,2.05,3.11,1*07
$GNGSA,A,3,40,07,20,10,59,,,,,,,,3.73,2.05,3.11,4*0B
$GPGSV,4,1,13,16,76,316,,193,62,154,,194,55,57,,26,52,27,,1*66
$GPGSV,4,2,13,199,51,140,23,31,45,51,,4,39,321,,196,34,163,13,1*67
$GPGSV,4,3,13,3,30,254,,28,24,79,16,32,12,141,,195,,,29,1*67
$GPGSV,4,4,13,27,,,27,1*66
$BDGSV,4,1,11,40,69,160,10,7,65,190,16,6,64,36,,9,60,357,,1*79
$BDGSV,4,2,11,20,56,234,13,10,55,201,14,46,46,304,,37,44,33,,1*41
$BDGSV,4,3,11,59,41,124,33,28,24,91,,1*48
$BDGSV,4,4,11,40,69,160,15,9*45
$GNRMC,160548.000,A,2636.39242,N,10639.79345,E,0.976,296.60,270723,,,A,U*39
$GNZDA,160548.000,27,07,2023,00,00*47
$GNTXT,01,01,02,ANT_OPEN,B1,*30
$GNGGA,160549.000,2636.39250,N,10639.79330,E,1,08,2.05,1222.5,M,-26.4,M,,*66
$GNGSA,A,3,199,196,28,,,,,,,,,,3.73,2.05,3.11,1*07
$GNGSA,A,3,40,07,20,10,59,,,,,,,,3.73,2.05,3.11,4*0B
$GPGSV,4,1,13,16,76,316,,193,62,154,,194,55,57,,26,52,27,,1*66
$GPGSV,4,2,13,199,51,140,23,31,45,51,,4,39,321,,196,34,163,13,1*67
$GPGSV,4,3,13,3,30,254,,28,24,79,17,32,12,141,,195,,,29,1*66
$GPGSV,4,4,13,27,,,27,1*66
$BDGSV,4,1,11,40,69,160,10,7,65,190,15,6,64,36,,9,60,357,,1*7A
$BDGSV,4,2,11,20,56,234,13,10,55,201,14,46,46,304,,37,44,33,,1*41
$BDGSV,4,3,11,59,41,124,33,28,24,91,,1*48
$BDGSV,4,4,11,40,69,160,15,9*45
$GNRMC,160549.000,A,2636.39250,N,10639.79330,E,0.698,314.06,270723,,,A,U*3D
$GNZDA,160549.000,27,07,2023,00,00*46
$GNTXT,01,01,02,ANT_OPEN,B1,*30
$GNGGA,160550.000,2636.39242,N,10639.79312,E,1,08,2.05,1222.2,M,-26.4,M,,*6A
$GNGSA,A,3,199,196,28,,,,,,,,,,3.73,2.05,3.11,1*07
$GNGSA,A,3,40,07,20,10,59,,,,,,,,3.73,2.05,3.11,4*0B
$GPGSV,4,1,13,16,76,316,,193,62,154,,194,55,57,,26,52,27,,1*66
$GPGSV,4,2,13,199,51,140,23,31,45,51,,4,39,321,,196,34,163,14,1*60
$GPGSV,4,3,13,3,30,254,,28,24,79,17,32,12,141,,195,,,29,1*66
$GPGSV,4,4,13,27,,,26,1*67
$BDGSV,4,1,11,40,69,160,9,7,65,190,15,6,64,36,,9,60,357,,1*42
$BDGSV,4,2,11,20,56,234,13,10,55,201,14,46,46,304,,37,44,33,,1*41
$BDGSV,4,3,11,59,41,124,33,28,24,91,,1*48
$BDGSV,4,4,11,40,69,160,15,9*45
$GNRMC,160550.000,A,2636.39242,N,10639.79312,E,0.489,311.72,270723,,,A,U*32
$GNZDA,160550.000,27,07,2023,00,00*4E
$GNTXT,01,01,02,ANT_OPEN,B1,*30
$GNGGA,160551.000,2636.39239,N,10639.79308,E,1,08,2.05,1222.4,M,-26.4,M,,*6A
$GNGSA,A,3,199,196,28,,,,,,,,,,3.73,2.05,3.11,1*07
$GNGSA,A,3,40,07,20,10,59,,,,,,,,3.73,2.05,3.11,4*0B
$GPGSV,4,1,13,16,76,316,,193,62,154,,194,55,57,,26,52,27,,1*66
$GPGSV,4,2,13,199,51,140,23,31,45,51,,4,39,321,,196,34,163,14,1*60
$GPGSV,4,3,13,3,30,254,,28,24,79,17,32,12,141,,195,,,29,1*66
$GPGSV,4,4,13,27,,,26,1*67
$BDGSV,4,1,11,40,69,160,9,7,65,190,15,6,64,36,,9,60,357,,1*42
$BDGSV,4,2,11,20,56,234,13,10,55,201,14,46,47,304,,37,44,33,,1*40
$BDGSV,4,3,11,59,41,124,33,28,24,91,,1*48
$BDGSV,4,4,11,40,69,160,15,9*45
$GNRMC,160551.000,A,2636.39239,N,10639.79308,E,0.464,314.10,270723,,,A,U*36
$GNZDA,160551.000,27,07,2023,00,00*4F
$GNTXT,01,01,02,ANT_OPEN,B1,*30
$GNGGA,160552.000,2636.39260,N,10639.79297,E,1,08,2.05,1222.6,M,-26.4,M,,*60
$GNGSA,A,3,199,196,28,,,,,,,,,,3.73,2.05,3.11,1*07
$GNGSA,A,3,40,07,20,10,59,,,,,,,,3.73,2.05,3.11,4*0B
$GPGSV,4,1,13,16,76,316,,193,62,154,,194,55,57,,26,52,27,,1*66
$GPGSV,4,2,13,199,51,140,23,31,45,51,,4,39,321,,196,34,163,14,1*60
$GPGSV,4,3,13,3,30,254,,28,24,79,17,32,12,141,,195,,,29,1*66
$GPGSV,4,4,13,27,,,26,1*67
$BDGSV,4,1,11,40,69,160,9,7,65,190,15,6,64,36,,9,60,357,,1*42
$BDGSV,4,2,11,20,56,234,13,10,55,201,14,46,47,304,,37,44,33,,1*40
$BDGSV,4,3,11,59,41,124,33,28,24,91,,1*48
$BDGSV,4,4,11,40,69,160,16,9*46
$GNRMC,160552.000,A,2636.39260,N,10639.79297,E,0.747,325.31,270723,,,A,U*3D
$GNZDA,160552.000,27,07,2023,00,00*4C
$GNTXT,01,01,02,ANT_OPEN,B1,*30
$GNGGA,160553.000,2636.39287,N,10639.79278,E,1,08,2.06,1222.6,M,-26.4,M,,*6A
$GNGSA,A,3,199,196,28,,,,,,,,,,3.72,2.06,3.11,1*05
$GNGSA,A,3,40,07,20,10,59,,,,,,,,3.72,2.06,3.11,4*09
$GPGSV,4,1,13,16,76,316,,193,62,154,,194,55,57,,26,52,27,,1*66
$GPGSV,4,2,13,199,51,140,23,31,45,51,,4,39,321,,196,34,163,14,1*60
$GPGSV,4,3,13,3,30,254,,28,24,79,16,32,12,141,,195,,,29,1*67
$GPGSV,4,4,13,27,,,26,1*67
$BDGSV,4,1,11,40,69,160,8,7,65,190,15,6,64,36,,9,60,357,,1*43
$BDGSV,4,2,11,20,56,234,13,10,55,201,14,46,47,304,,37,44,33,,1*40
$BDGSV,4,3,11,59,41,124,33,28,24,91,,1*48
$BDGSV,4,4,11,40,69,160,16,9*46
$GNRMC,160553.000,A,2636.39287,N,10639.79278,E,1.001,326.57,270723,,,A,U*33
$GNZDA,160553.000,27,07,2023,00,00*4D
$GNTXT,01,01,02,ANT_OPEN,B1,*30
$GNGGA,160554.000,2636.39330,N,10639.79254,E,1,08,2.06,1222.6,M,-26.4,M,,*6E
$GNGSA,A,3,199,196,28,,,,,,,,,,3.72,2.06,3.11,1*05
$GNGSA,A,3,40,07,20,10,59,,,,,,,,3.72,2.06,3.11,4*09
$GPGSV,4,1,13,16,76,316,,193,62,154,,194,55,57,,26,52,27,,1*66
$GPGSV,4,2,13,199,51,140,23,31,45,51,,4,39,321,,196,34,163,14,1*60
$GPGSV,4,3,13,3,30,254,,28,24,79,16,32,12,141,,195,,,29,1*67
$GPGSV,4,4,13,27,,,26,1*67
$BDGSV,4,1,11,40,69,160,8,7,65,190,15,6,64,36,,9,60,357,,1*43
$BDGSV,4,2,11,20,56,234,13,10,55,201,15,46,47,304,,37,44,33,,1*41
$BDGSV,4,3,11,59,41,124,33,28,24,91,,1*48
$BDGSV,4,4,11,40,69,160,16,9*46
$GNRMC,160554.000,A,2636.39330,N,10639.79254,E,1.288,334.21,270723,,,A,U*36
$GNZDA,160554.000,27,07,2023,00,00*4A
$GNTXT,01,01,02,ANT_OPEN,B1,*30
$GNGGA,160555.000,2636.39368,N,10639.79199,E,1,08,2.06,1221.8,M,-26.4,M,,*6D
$GNGSA,A,3,199,196,28,,,,,,,,,,3.72,2.06,3.11,1*05
$GNGSA,A,3,40,07,20,10,59,,,,,,,,3.72,2.06,3.11,4*09
$GPGSV,4,1,13,16,76,316,,193,62,154,,194,55,57,,26,52,27,,1*66
$GPGSV,4,2,13,199,51,140,23,31,45,51,,4,39,321,,196,34,163,14,1*60
$GPGSV,4,3,13,3,30,254,,28,24,79,16,32,12,141,,195,,,29,1*67
$GPGSV,4,4,13,27,,,27,1*66
$BDGSV,4,1,11,40,69,160,8,7,65,190,16,6,64,36,,9,60,357,,1*40
$BDGSV,4,2,11,20,56,234,13,10,55,201,15,46,47,304,,37,44,33,,1*41
$BDGSV,4,3,11,59,41,124,32,28,24,91,,1*49
$BDGSV,4,4,11,40,69,160,16,9*46
$GNRMC,160555.000,A,2636.39368,N,10639.79199,E,1.636,321.98,270723,,,A,U*3F
$GNZDA,160555.000,27,07,2023,00,00*4B
$GNTXT,01,01,02,ANT_OPEN,B1,*30
$GNGGA,160556.000,2636.39419,N,10639.79178,E,1,08,2.06,1222.1,M,-26.4,M,,*6A
$GNGSA,A,3,199,196,28,,,,,,,,,,3.72,2.06,3.11,1*05
$GNGSA,A,3,40,07,20,10,59,,,,,,,,3.72,2.06,3.11,4*09
$GPGSV,4,1,13,16,76,316,,193,62,154,,194,55,57,,26,52,27,,1*66
$GPGSV,4,2,13,199,51,140,23,31,45,51,,4,39,321,,196,34,163,14,1*60
$GPGSV,4,3,13,3,30,254,,28,24,79,15,32,12,141,,195,,,29,1*64
$GPGSV,4,4,13,27,,,27,1*66
$BDGSV,4,1,11,40,69,160,8,7,65,190,16,6,64,36,,9,60,357,,1*40
$BDGSV,4,2,11,20,56,234,13,10,55,201,15,46,47,304,,37,44,33,,1*41
$BDGSV,4,3,11,59,41,124,32,28,24,91,,1*49
$BDGSV,4,4,11,40,69,160,16,9*46
$GNRMC,160556.000,A,2636.39419,N,10639.79178,E,1.708,334.21,270723,,,A,U*38
$GNZDA,160556.000,27,07,2023,00,00*48
$GNTXT,01,01,02,ANT_OPEN,B1,*30
$GNGGA,160557.000,2636.39451,N,10639.79169,E,1,08,2.06,1222.2,M,-26.4,M,,*64
$GNGSA,A,3,199,196,28,,,,,,,,,,3.72,2.06,3.11,1*05
$GNGSA,A,3,40,07,20,10,59,,,,,,,,3.72,2.06,3.11,4*09
$GPGSV,4,1,13,16,76,316,,193,62,154,,194,55,57,,26,52,27,,1*66
$GPGSV,4,2,13,199,51,140,23,31,45,51,,4,39,321,,196,34,163,14,1*60
$GPGSV,4,3,13,3,30,254,,28,24,79,15,32,12,141,,195,,,29,1*64
$GPGSV,4,4,13,27,,,27,1*66
$BDGSV,4,1,11,40,69,160,8,7,65,190,15,6,64,36,,9,60,357,,1*43
$BDGSV,4,2,11,20,56,234,13,10,55,201,15,46,47,304,,37,44,33,,1*41
$BDGSV,4,3,11,59,41,124,32,28,24,91,,1*49
$BDGSV,4,4,11,40,69,160,16,9*46
$GNRMC,160557.000,A,2636.39451,N,10639.79169,E,1.501,347.04,270723,,,A,U*3D
$GNZDA,160557.000,27,07,2023,00,00*49
$GNTXT,01,01,02,ANT_OPEN,B1,*30
$GNGGA,160558.000,2636.39472,N,10639.79164,E,1,08,2.06,1222.2,M,-26.4,M,,*67
$GNGSA,A,3,199,196,28,,,,,,,,,,3.72,2.06,3.10,1*04
$GNGSA,A,3,40,07,20,10,59,,,,,,,,3.72,2.06,3.10,4*08
$GPGSV,4,1,13,16,76,316,,193,62,154,,194,55,57,,26,52,27,,1*66
$GPGSV,4,2,13,199,51,140,23,31,45,51,,4,39,321,,196,34,163,14,1*60
$GPGSV,4,3,13,3,30,254,,28,24,79,15,32,12,141,,195,,,29,1*64
$GPGSV,4,4,13,27,,,27,1*66
$BDGSV,4,1,11,40,69,160,8,7,65,190,15,6,64,36,,9,60,357,,1*43
$BDGSV,4,2,11,20,56,234,13,10,55,201,15,46,47,304,,37,44,33,,1*41
$BDGSV,4,3,11,59,41,124,33,28,24,91,,1*48
$BDGSV,4,4,11,40,69,160,16,9*46
$GNRMC,160558.000,A,2636.39472,N,10639.79164,E,1.365,343.55,270723,,,A,U*3A
$GNZDA,160558.000,27,07,2023,00,00*46
$GNTXT,01,01,02,ANT_OPEN,B1,*30
$GNGGA,160559.000,2636.39463,N,10639.79126,E,1,08,2.06,1221.6,M,-26.4,M,,*67
$GNGSA,A,3,199,196,28,,,,,,,,,,3.72,2.06,3.10,1*04
$GNGSA,A,3,40,07,20,10,59,,,,,,,,3.72,2.06,3.10,4*08
$GPGSV,4,1,13,16,76,316,,193,62,154,,194,55,57,,26,52,27,,1*66
$GPGSV,4,2,13,199,51,140,23,31,45,51,,4,39,321,,196,34,163,14,1*60
$GPGSV,4,3,13,3,30,254,,28,24,79,14,195,21,129,29,32,12,141,,1*5C
$GPGSV,4,4,13,27,,,27,1*66
$BDGSV,4,1,11,40,69,160,,7,65,190,15,6,64,36,,9,60,357,,1*7B
$BDGSV,4,2,11,20,56,234,13,10,55,201,15,46,47,304,,37,44,33,,1*41
$BDGSV,4,3,11,59,41,124,33,28,24,91,,1*48
$BDGSV,4,4,11,40,69,160,16,9*46
$GNRMC,160559.000,A,2636.39463,N,10639.79126,E,1.250,312.32,270723,,,A,U*3F
$GNZDA,160559.000,27,07,2023,00,00*47
$GNTXT,01,01,02,ANT_OPEN,B1,*30
$GNGGA,160600.000,2636.39488,N,10639.79133,E,1,08,2.06,1222.4,M,-26.4,M,,*68
$GNGSA,A,3,199,196,28,,,,,,,,,,3.72,2.06,3.10,1*04
$GNGSA,A,3,40,07,20,10,59,,,,,,,,3.72,2.06,3.10,4*08
$GPGSV,4,1,13,16,76,316,,193,62,154,,194,55,57,,26,52,27,,1*66
$GPGSV,4,2,13,199,51,140,23,31,45,51,,4,39,321,,196,34,163,14,1*60
$GPGSV,4,3,13,3,30,254,,28,24,79,14,195,21,129,29,32,12,141,,1*5C
$GPGSV,4,4,13,27,,,27,1*66
$BDGSV,4,1,11,40,69,160,,7,65,190,16,6,64,36,,9,60,357,,1*78
$BDGSV,4,2,11,20,56,234,14,10,55,201,15,46,47,304,,37,44,33,,1*46
$BDGSV,4,3,11,59,41,124,33,28,24,91,,1*48
$BDGSV,4,4,11,40,69,160,16,9*46
$GNRMC,160600.000,A,2636.39488,N,10639.79133,E,1.079,328.05,270723,,,A,U*35
$GNZDA,160600.000,27,07,2023,00,00*48
$GNTXT,01,01,02,ANT_OPEN,B1,*30
$GNGGA,160601.000,2636.39495,N,10639.79136,E,1,08,2.06,1222.7,M,-26.4,M,,*63
$GNGSA,A,3,199,196,28,,,,,,,,,,3.72,2.06,3.10,1*04
$GNGSA,A,3,40,07,20,10,59,,,,,,,,3.72,2.06,3.10,4*08
$GPGSV,4,1,13,16,76,316,,193,62,154,,194,55,57,,26,52,27,,1*66
$GPGSV,4,2,13,199,51,140,23,31,45,51,,4,39,321,,196,34,163,14,1*60
$GPGSV,4,3,13,3,30,254,,28,24,79,14,195,21,129,30,32,12,141,,1*54
$GPGSV,4,4,13,27,,,27,1*66
$BDGSV,4,1,11,40,69,160,,7,65,190,16,6,64,36,,9,60,357,,1*78
$BDGSV,4,2,11,20,56,234,13,10,55,201,15,46,47,304,,37,44,33,,1*41
$BDGSV,4,3,11,59,41,124,33,28,24,91,,1*48
$BDGSV,4,4,11,40,69,160,16,9*46
$GNRMC,160601.000,A,2636.39495,N,10639.79136,E,0.870,331.47,270723,,,A,U*33
$GNZDA,160601.000,27,07,2023,00,00*49
$GNTXT,01,01,02,ANT_OPEN,B1,*30
$GNGGA,160602.000,2636.39509,N,10639.79145,E,1,08,2.06,1223.2,M,-26.4,M,,*64
$GNGSA,A,3,199,196,28,,,,,,,,,,3.72,2.06,3.10,1*04
$GNGSA,A,3,40,07,20,10,59,,,,,,,,3.72,2.06,3.10,4*08
$GPGSV,4,1,13,16,76,316,,193,62,154,,194,55,57,,26,52,27,,1*66
$GPGSV,4,2,13,199,51,140,23,31,45,51,,4,39,321,,196,34,163,14,1*60
$GPGSV,4,3,13,3,30,254,,28,24,79,14,195,21,129,30,32,12,141,,1*54
$GPGSV,4,4,13,27,,,27,1*66
$BDGSV,4,1,11,40,69,160,,7,65,190,16,6,64,36,,9,60,357,,1*78
$BDGSV,4,2,11,20,56,234,14,10,55,201,16,46,47,304,,37,44,33,,1*45
$BDGSV,4,3,11,59,41,124,33,28,24,91,,1*48
$BDGSV,4,4,11,40,69,160,16,9*46
$GNRMC,160602.000,A,2636.39509,N,10639.79145,E,0.804,338.48,270723,,,A,U*35
$GNZDA,160602.000,27,07,2023,00,00*4A
$GNTXT,01,01,02,ANT_OPEN,B1,*30
$GNGGA,160603.000,2636.39488,N,10639.79172,E,1,08,2.06,1223.8,M,-26.4,M,,*63
$GNGSA,A,3,199,196,28,,,,,,,,,,3.72,2.06,3.10,1*04
$GNGSA,A,3,40,07,20,10,59,,,,,,,,3.72,2.06,3.10,4*08
$GPGSV,4,1,13,16,76,316,,193,62,154,,194,55,57,,26,52,27,,1*66
$GPGSV,4,2,13,199,51,140,23,31,45,51,,4,39,321,,196,34,163,14,1*60
$GPGSV,4,3,13,3,30,254,,28,24,79,14,195,21,129,29,32,12,141,,1*5C
$GPGSV,4,4,13,27,,,26,1*67
$BDGSV,4,1,11,40,69,160,,7,65,190,15,6,64,36,,9,60,357,,1*7B
$BDGSV,4,2,11,20,56,234,14,10,55,201,15,46,47,304,,37,44,33,,1*46
$BDGSV,4,3,11,59,41,124,33,28,24,91,,1*48
$BDGSV,4,4,11,40,69,160,16,9*46
$GNRMC,160603.000,A,2636.39488,N,10639.79172,E,0.419,1.81,270723,,,A,U*34
$GNZDA,160603.000,27,07,2023,00,00*4B
$GNTXT,01,01,02,ANT_OPEN,B1,*30
$GNGGA,160604.000,2636.39457,N,10639.79168,E,1,08,2.06,1223.4,M,-26.4,M,,*61
$GNGSA,A,3,199,196,28,,,,,,,,,,3.72,2.06,3.10,1*04
$GNGSA,A,3,40,07,20,10,59,,,,,,,,3.72,2.06,3.10,4*08
$GPGSV,4,1,13,16,76,316,,193,62,154,,194,55,57,,26,52,27,,1*66
$GPGSV,4,2,13,199,51,140,23,31,45,51,,4,39,321,,196,34,163,14,1*60
$GPGSV,4,3,13,3,30,254,,28,24,79,14,195,21,129,29,32,12,142,,1*5F
$GPGSV,4,4,13,27,,,26,1*67
$BDGSV,4,1,11,40,69,160,,7,65,190,15,6,64,36,,9,60,357,,1*7B
$BDGSV,4,2,11,20,56,234,13,10,55,201,15,46,47,304,,37,44,33,,1*41
$BDGSV,4,3,11,59,41,124,32,28,24,91,,1*49
$BDGSV,4,4,11,40,69,160,16,9*46
$GNRMC,160604.000,A,2636.39457,N,10639.79168,E,0.130,1.81,270723,,,A,U*34
$GNZDA,160604.000,27,07,2023,00,00*4C
$GNTXT,01,01,02,ANT_OPEN,B1,*30
$GNGGA,160605.000,2636.39437,N,10639.79177,E,1,08,2.06,1223.7,M,-26.4,M,,*6B
$GNGSA,A,3,199,196,28,,,,,,,,,,3.72,2.06,3.10,1*04
$GNGSA,A,3,40,07,20,10,59,,,,,,,,3.72,2.06,3.10,4*08
$GPGSV,4,1,13,16,76,316,,193,62,154,,194,55,57,,26,52,27,,1*66
$GPGSV,4,2,13,199,51,140,23,31,45,51,,4,39,321,,196,34,163,14,1*60
$GPGSV,4,3,13,3,30,254,,28,24,79,14,195,21,129,30,32,12,142,,1*57
$GPGSV,4,4,13,27,,,26,1*67
$BDGSV,4,1,11,40,69,160,,7,65,190,15,6,64,36,,9,60,357,,1*7B
$BDGSV,4,2,11,20,56,234,13,10,55,201,15,46,47,304,,37,44,33,,1*41
$BDGSV,4,3,11,59,41,124,33,28,24,91,,1*48
$BDGSV,4,4,11,40,69,160,16,9*46
$GNRMC,160605.000,A,2636.39437,N,10639.79177,E,0.176,1.81,270723,,,A,U*3F
$GNZDA,160605.000,27,07,2023,00,00*4D
$GNTXT,01,01,02,ANT_OPEN,B1,*30
$GNGGA,160606.000,2636.39433,N,10639.79193,E,1,08,2.06,1224.3,M,-26.4,M,,*65
$GNGSA,A,3,199,196,28,,,,,,,,,,3.72,2.06,3.10,1*04
$GNGSA,A,3,40,07,20,10,59,,,,,,,,3.72,2.06,3.10,4*08
$GPGSV,4,1,13,16,76,316,,193,62,154,,194,55,57,,26,52,27,,1*66
$GPGSV,4,2,13,199,51,140,23,31,45,51,,4,39,321,,196,34,163,14,1*60
$GPGSV,4,3,13,3,30,254,,28,24,79,14,195,21,129,30,32,12,142,,1*57
$GPGSV,4,4,13,27,,,27,1*66
$BDGSV,4,1,11,40,69,160,,7,65,190,15,6,64,36,,9,60,357,,1*7B
$BDGSV,4,2,11,20,56,234,13,10,55,201,16,46,47,304,,37,44,33,,1*42
$BDGSV,4,3,11,59,41,124,33,28,24,91,,1*48
$BDGSV,4,4,11,40,69,160,16,9*46
$GNRMC,160606.000,A,2636.39433,N,10639.79193,E,0.134,1.81,270723,,,A,U*34
$GNZDA,160606.000,27,07,2023,00,00*4E
$GNTXT,01,01,02,ANT_OPEN,B1,*30
$GNGGA,160607.000,2636.39403,N,10639.79188,E,1,08,2.06,1224.0,M,-26.4,M,,*6E
$GNGSA,A,3,199,196,28,,,,,,,,,,3.72,2.06,3.10,1*04
$GNGSA,A,3,40,07,20,10,59,,,,,,,,3.72,2.06,3.10,4*08
$GPGSV,4,1,13,16,76,316,,193,62,154,,194,55,57,,26,52,27,,1*66
$GPGSV,4,2,13,199,51,140,23,31,45,51,,4,39,321,,196,34,163,14,1*60
$GPGSV,4,3,13,3,30,254,,28,24,79,14,195,21,129,30,32,12,142,,1*57
$GPGSV,4,4,13,27,,,27,1*66
$BDGSV,4,1,11,40,69,160,,7,65,190,15,6,64,36,,9,60,357,,1*7B
$BDGSV,4,2,11,20,56,234,13,10,55,201,16,46,47,304,,37,44,33,,1*42
$BDGSV,4,3,11,59,41,124,33,28,24,91,,1*48
$BDGSV,4,4,11,40,69,160,17,9*47
$GNRMC,160607.000,A,2636.39403,N,10639.79188,E,0.263,206.96,270723,,,A,U*3E
$GNZDA,160607.000,27,07,2023,00,00*4F
$GNTXT,01,01,02,ANT_OPEN,B1,*30
$GNGGA,160608.000,2636.39355,N,10639.79192,E,1,08,2.06,1223.9,M,-26.4,M,,*60
$GNGSA,A,3,199,196,28,,,,,,,,,,3.72,2.06,3.10,1*04
$GNGSA,A,3,40,07,20,10,59,,,,,,,,3.72,2.06,3.10,4*08
$GPGSV,4,1,13,16,76,316,,193,62,154,,194,55,57,,26,52,27,,1*66
$GPGSV,4,2,13,199,51,140,22,31,45,51,,4,39,321,,196,34,163,14,1*61
$GPGSV,4,3,13,3,30,254,,28,24,79,14,195,21,129,30,32,12,142,,1*57
$GPGSV,4,4,13,27,,,28,1*69
$BDGSV,4,1,11,40,69,160,,7,65,190,15,6,64,36,,9,60,357,,1*7B
$BDGSV,4,2,11,20,56,234,12,10,55,201,15,46,47,304,,37,44,33,,1*40
$BDGSV,4,3,11,59,41,124,33,28,24,91,,1*48
$BDGSV,4,4,11,40,69,160,17,9*47
$GNRMC,160608.000,A,2636.39355,N,10639.79192,E,0.566,177.61,270723,,,A,U*31
$GNZDA,160608.000,27,07,2023,00,00*40
$GNTXT,01,01,02,ANT_OPEN,B1,*30
$GNGGA,160609.000,2636.39378,N,10639.79157,E,1,08,2.06,1223.3,M,-26.4,M,,*6D
$GNGSA,A,3,199,196,28,,,,,,,,,,3.72,2.06,3.10,1*04
$GNGSA,A,3,40,07,20,10,59,,,,,,,,3.72,2.06,3.10,4*08
$GPGSV,4,1,13,16,76,316,,193,62,154,,194,55,57,,26,52,27,,1*66
$GPGSV,4,2,13,199,51,140,22,31,45,51,,4,39,321,,196,34,163,14,1*61
$GPGSV,4,3,13,3,30,254,,28,24,79,15,195,21,129,30,32,12,142,19,1*5E
$GPGSV,4,4,13,27,,,28,1*69
$BDGSV,4,1,11,40,69,160,,7,65,190,15,6,64,36,,9,60,357,,1*7B
$BDGSV,4,2,11,20,56,234,13,10,55,201,15,46,47,304,,37,44,33,,1*41
$BDGSV,4,3,11,59,41,124,33,28,24,91,,1*48
$BDGSV,4,4,11,40,69,160,18,9*48
$GNRMC,160609.000,A,2636.39378,N,10639.79157,E,0.342,224.24,270723,,,A,U*32
$GNZDA,160609.000,27,07,2023,00,00*41
$GNTXT,01,01,02,ANT_OPEN,B1,*30
$GNGGA,160610.000,2636.39500,N,10639.79285,E,1,09,1.93,1229.9,M,-26.4,M,,*6E
$GNGSA,A,3,199,196,28,32,,,,,,,,,2.97,1.93,2.26,1*04
$GNGSA,A,3,40,07,20,10,59,,,,,,,,2.97,1.93,2.26,4*09
$GPGSV,4,1,13,16,76,316,,193,62,154,,194,55,57,,26,52,27,,1*66
$GPGSV,4,2,13,199,51,140,22,31,45,51,,4,39,321,,196,34,163,14,1*61
$GPGSV,4,3,13,3,30,254,,28,24,79,15,195,21,129,30,32,12,142,18,1*5F
$GPGSV,4,4,13,27,,,28,1*69
$BDGSV,4,1,11,40,69,160,,7,65,190,15,6,64,36,,9,60,357,,1*7B
$BDGSV,4,2,11,20,56,234,13,10,55,201,15,46,47,304,,37,44,33,,1*41
$BDGSV,4,3,11,59,41,124,33,28,24,91,,1*48
$BDGSV,4,4,11,40,69,160,18,9*48
$GNRMC,160610.000,A,2636.39500,N,10639.79285,E,0.390,337.14,270723,,,A,U*30
$GNZDA,160610.000,27,07,2023,00,00*49
$GNTXT,01,01,02,ANT_OPEN,B1,*30
$GNGGA,160611.000,2636.39408,N,10639.78946,E,1,08,2.06,1221.1,M,-26.4,M,,*6D
$GNGSA,A,3,199,196,28,,,,,,,,,,3.72,2.06,3.09,1*0C
$GNGSA,A,3,40,07,20,10,59,,,,,,,,3.72,2.06,3.09,4*00
$GPGSV,4,1,13,16,76,316,,193,62,154,,194,55,57,,26,52,27,,1*66
$GPGSV,4,2,13,199,51,140,22,31,45,51,,4,39,321,,196,34,163,14,1*61
$GPGSV,4,3,13,3,30,254,,28,24,79,15,195,21,129,30,32,12,142,,1*56
$GPGSV,4,4,13,27,,,28,1*69
$BDGSV,4,1,11,40,69,160,,7,65,190,15,6,64,36,,9,60,357,,1*7B
$BDGSV,4,2,11,20,56,234,13,10,55,201,15,46,47,304,,37,44,33,,1*41
$BDGSV,4,3,11,59,41,124,33,28,24,91,,1*48
$BDGSV,4,4,11,40,69,160,17,9*47
$GNRMC,160611.000,A,2636.39408,N,10639.78946,E,1.740,266.59,270723,,,A,U*39
$GNZDA,160611.000,27,07,2023,00,00*48
$GNTXT,01,01,02,ANT_OPEN,B1,*30
$GNGGA,160612.000,2636.39342,N,10639.78867,E,1,08,2.06,1222.2,M,-26.4,M,,*65
$GNGSA,A,3,199,196,28,,,,,,,,,,3.72,2.06,3.09,1*0C
$GNGSA,A,3,40,07,20,10,59,,,,,,,,3.72,2.06,3.09,4*00
$GPGSV,4,1,13,16,76,316,,193,62,154,,194,55,57,,26,52,27,,1*66
$GPGSV,4,2,13,199,51,140,22,31,45,51,,4,39,321,,196,34,163,13,1*66
$GPGSV,4,3,13,3,30,254,,28,24,79,15,195,21,129,30,32,12,142,,1*56
$GPGSV,4,4,13,27,,,28,1*69
$BDGSV,4,1,11,40,69,160,,7,65,190,15,6,64,36,,9,60,357,,1*7B
$BDGSV,4,2,11,20,56,234,13,10,55,201,15,46,47,304,,37,44,33,,1*41
$BDGSV,4,3,11,59,41,124,33,28,24,91,,1*48
$BDGSV,4,4,11,40,69,160,17,9*47
$GNRMC,160612.000,A,2636.39342,N,10639.78867,E,2.875,255.80,270723,,,A,U*3F
$GNZDA,160612.000,27,07,2023,00,00*4B
$GNTXT,01,01,02,ANT_OPEN,B1,*30
$GNGGA,160613.000,2636.39349,N,10639.78779,E,1,08,2.06,1222.7,M,-26.4,M,,*6A
$GNGSA,A,3,199,196,28,,,,,,,,,,3.72,2.06,3.09,1*0C
$GNGSA,A,3,40,07,20,10,59,,,,,,,,3.72,2.06,3.09,4*00
$GPGSV,4,1,13,16,76,316,,193,62,154,,194,55,57,,26,52,27,,1*66
$GPGSV,4,2,13,199,51,140,22,31,45,51,,4,39,321,,196,34,163,14,1*61
$GPGSV,4,3,13,3,30,254,,28,24,79,15,195,21,129,31,32,12,142,,1*57
$GPGSV,4,4,13,27,,,28,1*69
$BDGSV,4,1,11,40,69,160,,7,65,190,14,6,64,36,,9,60,357,,1*7A
$BDGSV,4,2,11,20,56,234,13,10,55,201,14,46,47,304,,37,44,33,,1*40
$BDGSV,4,3,11,59,41,124,33,28,24,91,,1*48
$BDGSV,4,4,11,40,69,160,17,9*47
$GNRMC,160613.000,A,2636.39349,N,10639.78779,E,2.831,259.90,270723,,,A,U*38
$GNZDA,160613.000,27,07,2023,00,00*4A
$GNTXT,01,01,02,ANT_OPEN,B1,*30
$GNGGA,160614.000,2636.39379,N,10639.78699,E,1,08,2.06,1222.9,M,-26.4,M,,*6F
$GNGSA,A,3,199,196,28,,,,,,,,,,3.72,2.06,3.09,1*0C
$GNGSA,A,3,40,07,10,20,59,,,,,,,,3.72,2.06,3.09,4*00
$GPGSV,4,1,13,16,76,316,,193,62,154,,194,55,57,,26,52,27,,1*66
$GPGSV,4,2,13,199,51,140,22,31,45,51,,4,39,321,,196,34,163,14,1*61
$GPGSV,4,3,13,3,30,254,,28,24,79,15,195,21,129,31,32,12,142,,1*57
$GPGSV,4,4,13,27,,,28,1*69
$BDGSV,4,1,11,40,69,160,,7,65,190,15,6,64,36,,9,60,357,,1*7B
$BDGSV,4,2,11,10,55,201,14,20,55,234,13,46,47,304,,37,44,33,,1*43
$BDGSV,4,3,11,59,41,124,33,28,24,91,,1*48
$BDGSV,4,4,11,40,69,160,17,9*47
$GNRMC,160614.000,A,2636.39379,N,10639.78699,E,2.440,268.27,270723,,,A,U*37
$GNZDA,160614.000,27,07,2023,00,00*4D
$GNTXT,01,01,02,ANT_OPEN,B1,*30
$GNGGA,160615.000,2636.39319,N,10639.78686,E,1,09,1.97,1224.0,M,-26.4,M,,*63
$GNGSA,A,3,199,196,28,195,,,,,,,,,3.36,1.97,2.72,1*37
$GNGSA,A,3,40,07,10,20,59,,,,,,,,3.36,1.97,2.72,4*06
$GPGSV,4,1,13,16,76,316,,193,62,154,,194,55,57,,26,52,27,,1*66
$GPGSV,4,2,13,199,51,140,22,31,45,51,,4,39,321,,196,34,163,13,1*66
$GPGSV,4,3,13,3,30,254,,28,24,79,15,195,21,129,31,32,12,142,,1*57
$GPGSV,4,4,13,27,,,28,1*69
$BDGSV,4,1,11,40,69,160,,7,65,190,14,6,64,36,,9,60,357,,1*7A
$BDGSV,4,2,11,10,55,201,14,20,55,234,13,46,47,304,,37,44,33,,1*43
$BDGSV,4,3,11,59,41,124,33,28,24,91,,1*48
$BDGSV,4,4,11,40,69,160,17,9*47
$GNRMC,160615.000,A,2636.39319,N,10639.78686,E,1.810,249.24,270723,,,A,U*34
$GNZDA,160615.000,27,07,2023,00,00*4C
$GNTXT,01,01,02,ANT_OPEN,B1,*30
$GNGGA,160616.000,2636.39250,N,10639.78686,E,1,09,1.97,1224.6,M,-26.4,M,,*6A
$GNGSA,A,3,199,196,28,195,,,,,,,,,3.36,1.97,2.72,1*37
$GNGSA,A,3,40,07,10,20,59,,,,,,,,3.36,1.97,2.72,4*06
$GPGSV,3,1,12,16,76,317,,193,62,154,,194,55,57,,26,52,27,,1*61
$GPGSV,3,2,12,199,51,140,22,31,45,51,20,4,39,321,,196,34,163,13,1*62
$GPGSV,3,3,12,3,30,254,,28,24,79,15,195,21,129,30,27,,,28,1*6A
$BDGSV,4,1,12,40,69,160,,7,65,190,14,6,64,36,,9,60,357,,1*79
$BDGSV,4,2,12,10,55,201,14,20,55,234,13,46,47,304,,37,44,33,,1*40
$BDGSV,4,3,12,59,41,124,33,28,24,91,,1*4B
$BDGSV,4,4,12,40,69,160,17,20,55,234,6,9*45
$GNRMC,160616.000,A,2636.39250,N,10639.78686,E,1.351,234.55,270723,,,A,U*39
$GNZDA,160616.000,27,07,2023,00,00*4F
$GNTXT,01,01,02,ANT_OPEN,B1,*30
$GNGGA,160617.000,2636.37000,N,10639.79283,E,1,10,1.70,1238.8,M,-26.4,M,,*60
$GNGSA,A,3,199,31,196,28,195,,,,,,,,3.20,1.70,2.72,1*3B
$GNGSA,A,3,40,07,10,20,59,,,,,,,,3.20,1.70,2.72,4*08
$GPGSV,3,1,12,16,76,317,,193,62,154,,194,55,57,,26,52,27,,1*61
$GPGSV,3,2,12,199,51,140,22,31,45,51,20,4,39,321,,196,34,163,13,1*62
$GPGSV,3,3,12,3,30,254,,28,24,79,15,195,21,129,30,27,,,28,1*6A
$BDGSV,4,1,12,40,69,160,,7,65,190,14,6,64,36,,9,60,357,,1*79
$BDGSV,4,2,12,10,55,201,14,20,55,234,13,46,47,304,,37,44,33,,1*40
$BDGSV,4,3,12,59,41,124,33,28,24,91,,1*4B
$BDGSV,4,4,12,40,69,160,17,20,55,234,6,9*45
$GNRMC,160617.000,A,2636.37000,N,10639.79283,E,0.752,226.61,270723,,,A,U*33
$GNZDA,160617.000,27,07,2023,00,00*4E
$GNTXT,01,01,02,ANT_OPEN,B1,*30
$GNGGA,160618.000,2636.36259,N,10639.79934,E,1,10,1.70,1253.4,M,-26.4,M,,*66
$GNGSA,A,3,199,31,196,28,195,,,,,,,,3.20,1.70,2.72,1*3B
$GNGSA,A,3,40,07,10,20,59,,,,,,,,3.20,1.70,2.72,4*08
$GPGSV,3,1,12,16,76,317,,193,62,154,,194,55,57,,26,52,27,,1*61
$GPGSV,3,2,12,199,51,140,22,31,45,51,20,4,39,321,,196,34,163,14,1*65
$GPGSV,3,3,12,3,30,254,,28,24,79,15,195,21,129,30,27,,,28,1*6A
$BDGSV,4,1,12,40,69,160,,7,65,190,14,6,64,36,,9,60,357,,1*79
$BDGSV,4,2,12,10,55,201,14,20,55,234,13,46,47,304,,37,44,33,,1*40
$BDGSV,4,3,12,59,41,124,33,28,24,91,,1*4B
$BDGSV,4,4,12,40,69,160,17,20,55,234,6,9*45
$GNRMC,160618.000,A,2636.36259,N,10639.79934,E,0.852,203.68,270723,,,A,U*35
$GNZDA,160618.000,27,07,2023,00,00*41
$GNTXT,01,01,02,ANT_OPEN,B1,*30
$GNGGA,160619.000,2636.36199,N,10639.80067,E,1,09,1.80,1256.4,M,-26.4,M,,*63
$GNGSA,A,3,199,31,196,195,,,,,,,,,3.48,1.80,2.99,1*35
$GNGSA,A,3,40,07,10,20,59,,,,,,,,3.48,1.80,2.99,4*0C
$GPGSV,3,1,12,16,76,317,,193,62,154,,194,55,57,,26,52,27,,1*61
$GPGSV,3,2,12,199,51,140,22,31,45,51,19,4,39,321,,196,34,163,14,1*6F
$GPGSV,3,3,12,3,30,254,,28,24,79,15,195,21,129,30,27,,,28,1*6A
$BDGSV,4,1,11,40,69,160,,7,65,190,14,6,64,36,,9,60,357,,1*7A
$BDGSV,4,2,11,10,55,201,13,20,55,234,13,46,47,304,,37,44,33,,1*44
$BDGSV,4,3,11,59,41,124,32,28,24,91,,1*49
$BDGSV,4,4,11,40,69,160,17,9*47
$GNRMC,160619.000,A,2636.36199,N,10639.80067,E,0.852,220.25,270723,,,A,U*3A
$GNZDA,160619.000,27,07,2023,00,00*40
$GNTXT,01,01,02,ANT_OPEN,B1,*30
$GNGGA,160620.000,2636.36136,N,10639.80069,E,1,09,1.80,1256.8,M,-26.4,M,,*6E
$GNGSA,A,3,199,31,196,195,,,,,,,,,3.48,1.80,2.99,1*35
$GNGSA,A,3,40,07,10,20,59,,,,,,,,3.48,1.80,2.99,4*0C
$GPGSV,3,1,12,16,76,317,,193,62,154,,194,55,57,,26,52,27,,1*61
$GPGSV,3,2,12,199,51,140,22,31,45,51,20,4,39,321,,196,34,163,14,1*65
$GPGSV,3,3,12,3,30,254,,28,24,79,15,195,21,129,30,27,,,28,1*6A
$BDGSV,4,1,12,40,69,160,,7,65,190,14,6,64,36,,9,60,357,,1*79
$BDGSV,4,2,12,10,55,201,13,20,55,234,13,46,47,304,,37,44,33,,1*47
$BDGSV,4,3,12,59,41,124,33,28,24,91,,32,21,172,,1*7D
$BDGSV,4,4,12,40,69,160,17,9*44
$GNRMC,160620.000,A,2636.36136,N,10639.80069,E,0.337,232.40,270723,,,A,U*33
$GNZDA,160620.000,27,07,2023,00,00*4A
$GNTXT,01,01,02,ANT_OPEN,B1,*30
$GNGGA,160621.000,2636.36098,N,10639.80371,E,1,10,1.77,1260.8,M,-26.4,M,,*65
$GNGSA,A,3,199,31,27,196,195,,,,,,,,3.47,1.77,2.98,1*36
$GNGSA,A,3,40,07,10,20,59,,,,,,,,3.47,1.77,2.98,4*0A
$GPGSV,3,1,12,16,76,317,,193,62,154,,194,55,57,,26,52,27,,1*61
$GPGSV,3,2,12,199,51,140,22,31,45,51,20,27,40,162,28,4,39,321,,1*53
$GPGSV,3,3,12,196,34,163,14,3,30,254,,28,24,79,15,195,21,129,30,1*6D
$BDGSV,4,1,12,40,70,160,,7,65,190,14,6,64,36,,9,60,357,,1*71
$BDGSV,4,2,12,10,55,201,14,20,55,234,13,46,47,304,,37,44,34,,1*47
$BDGSV,4,3,12,59,41,124,33,28,24,91,,32,21,172,,1*7D
$BDGSV,4,4,12,40,70,160,17,9*4C
$GNRMC,160621.000,A,2636.36098,N,10639.80371,E,0.000,232.40,270723,,,A,U*3A
$GNZDA,160621.000,27,07,2023,00,00*4B
$GNTXT,01,01,02,ANT_OPEN,B1,*30
$GNGGA,160622.000,2636.36022,N,10639.80561,E,1,11,1.67,1263.7,M,-26.4,M,,*6C
$GNGSA,A,3,199,31,27,196,28,195,,,,,,,3.19,1.67,2.72,1*32
$GNGSA,A,3,40,07,10,20,59,,,,,,,,3.19,1.67,2.72,4*04
$GPGSV,3,1,12,16,76,317,,193,62,154,,194,55,57,17,26,52,27,,1*67
$GPGSV,3,2,12,199,51,140,22,31,45,51,20,27,40,162,29,4,39,321,,1*52
$GPGSV,3,3,12,196,34,163,14,3,30,254,,28,24,79,15,195,21,129,30,1*6D
$BDGSV,4,1,12,40,70,160,,7,65,190,14,6,64,36,,9,60,357,,1*71
$BDGSV,4,2,12,10,55,201,14,20,55,234,13,46,47,304,,37,44,34,,1*47
$BDGSV,4,3,12,59,41,124,33,28,24,91,,32,21,172,,1*7D
$BDGSV,4,4,12,40,70,160,17,9*4C
$GNRMC,160622.000,A,2636.36022,N,10639.80561,E,0.800,159.81,270723,,,A,U*34
$GNZDA,160622.000,27,07,2023,00,00*48
$GNTXT,01,01,02,ANT_OPEN,B1,*30
$GNGGA,160623.000,2636.35998,N,10639.80632,E,1,11,1.67,1264.5,M,-26.4,M,,*66
$GNGSA,A,3,199,31,27,196,28,195,,,,,,,3.19,1.67,2.72,1*32
$GNGSA,A,3,40,07,10,20,59,,,,,,,,3.19,1.67,2.72,4*04
$GPGSV,3,1,12,16,76,317,,193,62,154,,194,55,57,16,26,52,27,,1*66
$GPGSV,3,2,12,199,51,140,22,31,45,51,19,27,40,162,29,4,39,321,,1*58
$GPGSV,3,3,12,196,34,163,14,3,30,254,,28,24,79,14,195,21,129,30,1*6C
$BDGSV,4,1,12,40,70,160,,7,65,190,14,6,64,36,,9,60,357,,1*71
$BDGSV,4,2,12,10,55,201,13,20,55,234,13,46,47,304,,37,44,34,,1*40
$BDGSV,4,3,12,59,41,124,32,28,24,91,,32,21,172,,1*7C
$BDGSV,4,4,12,40,70,160,17,9*4C
$GNRMC,160623.000,A,2636.35998,N,10639.80632,E,0.333,201.55,270723,,,A,U*37
$GNZDA,160623.000,27,07,2023,00,00*49
$GNTXT,01,01,02,ANT_OPEN,B1,*30
$GNGGA,160624.000,2636.35995,N,10639.80649,E,1,10,1.77,1264.4,M,-26.4,M,,*61
$GNGSA,A,3,199,31,27,196,195,,,,,,,,3.47,1.77,2.98,1*36
$GNGSA,A,3,40,07,10,20,59,,,,,,,,3.47,1.77,2.98,4*0A
$GPGSV,3,1,12,16,76,317,,193,62,154,,194,55,57,15,26,52,27,,1*65
$GPGSV,3,2,12,199,51,140,23,31,45,51,19,27,40,162,29,4,39,321,,1*59
$GPGSV,3,3,12,196,34,163,14,3,30,254,,28,24,79,14,195,21,129,30,1*6C
$BDGSV,4,1,12,40,70,160,,7,65,190,14,6,64,36,,9,60,357,,1*71
$BDGSV,4,2,12,10,55,201,13,20,55,234,13,46,47,304,,37,44,34,,1*40
$BDGSV,4,3,12,59,41,124,32,28,24,91,,32,21,172,,1*7C
$BDGSV,4,4,12,40,70,160,17,9*4C
$GNRMC,160624.000,A,2636.35995,N,10639.80649,E,0.195,303.43,270723,,,A,U*3B
$GNZDA,160624.000,27,07,2023,00,00*4E
$GNTXT,01,01,02,ANT_OPEN,B1,*30
$GNGGA,160625.000,2636.35989,N,10639.80715,E,1,10,1.77,1265.1,M,-26.4,M,,*61
$GNGSA,A,3,199,31,27,196,195,,,,,,,,3.47,1.77,2.98,1*36
$GNGSA,A,3,40,07,10,20,59,,,,,,,,3.47,1.77,2.98,4*0A
$GPGSV,3,1,12,16,76,317,,193,62,154,,194,55,57,15,26,52,27,,1*65
$GPGSV,3,2,12,199,51,140,22,31,45,51,19,27,40,162,29,4,39,321,,1*58
$GPGSV,3,3,12,196,34,163,14,3,30,254,,28,24,79,15,195,21,129,30,1*6D
$BDGSV,4,1,12,40,70,160,,7,65,190,14,6,64,36,,9,60,357,,1*71
$BDGSV,4,2,12,10,55,201,13,20,55,234,13,46,47,304,,37,44,34,,1*40
$BDGSV,4,3,12,59,41,124,33,28,24,91,,32,21,172,,1*7D
$BDGSV,4,4,12,40,70,160,17,9*4C
$GNRMC,160625.000,A,2636.35989,N,10639.80715,E,0.052,303.43,270723,,,A,U*35
$GNZDA,160625.000,27,07,2023,00,00*4F
$GNTXT,01,01,02,ANT_OPEN,B1,*30
$GNGGA,160626.000,2636.35983,N,10639.80781,E,1,10,1.77,1265.9,M,-26.4,M,,*6D
$GNGSA,A,3,199,31,27,196,195,,,,,,,,3.47,1.77,2.98,1*36
$GNGSA,A,3,40,07,10,20,59,,,,,,,,3.47,1.77,2.98,4*0A
$GPGSV,3,1,12,16,76,317,,193,62,154,,194,55,57,14,26,52,27,,1*64
$GPGSV,3,2,12,199,51,140,22,31,45,51,18,27,40,162,29,4,39,321,,1*59
$GPGSV,3,3,12,196,34,163,14,3,30,254,,28,24,79,14,195,21,129,30,1*6C
$BDGSV,4,1,12,40,70,160,,7,65,190,14,6,64,36,,9,60,357,,1*71
$BDGSV,4,2,12,10,55,201,13,20,55,234,13,46,47,304,,37,44,34,,1*40
$BDGSV,4,3,12,59,41,124,33,28,24,91,,32,21,172,,1*7D
$BDGSV,4,4,12,40,70,160,17,9*4C
$GNRMC,160626.000,A,2636.35983,N,10639.80781,E,0.157,303.43,270723,,,A,U*35
$GNZDA,160626.000,27,07,2023,00,00*4C
$GNTXT,01,01,02,ANT_OPEN,B1,*30
$GNGGA,160627.000,2636.35977,N,10639.80848,E,1,09,2.44,1266.8,M,-26.4,M,,*64
$GNGSA,A,3,199,31,27,196,195,,,,,,,,4.32,2.44,3.57,1*32
$GNGSA,A,3,40,07,10,59,,,,,,,,,4.32,2.44,3.57,4*0C
$GPGSV,3,1,12,16,76,317,,193,62,154,,194,55,57,14,26,52,27,,1*64
$GPGSV,3,2,12,199,51,140,22,31,45,51,18,27,40,162,28,4,39,321,,1*58
$GPGSV,3,3,12,196,34,163,14,3,30,254,,28,24,79,14,195,21,129,30,1*6C
$BDGSV,4,1,12,40,70,160,,7,65,190,13,6,64,36,,9,60,357,,1*76
$BDGSV,4,2,12,10,55,201,13,20,55,234,13,46,47,304,,37,44,34,,1*40
$BDGSV,4,3,12,59,41,124,33,28,24,91,,32,21,172,,1*7D
$BDGSV,4,4,12,40,70,160,18,9*43
$GNRMC,160627.000,A,2636.35977,N,10639.80848,E,0.115,303.43,270723,,,A,U*33
$GNZDA,160627.000,27,07,2023,00,00*4D
$GNTXT,01,01,02,ANT_OPEN,B1,*30
$GNGGA,160628.000,2636.35966,N,10639.80910,E,1,09,2.44,1267.6,M,-26.4,M,,*68
$GNGSA,A,3,199,31,27,196,195,,,,,,,,4.32,2.44,3.57,1*32
$GNGSA,A,3,40,07,10,59,,,,,,,,,4.32,2.44,3.57,4*0C
$GPGSV,3,1,12,16,76,317,,193,62,154,,194,55,57,13,26,52,27,,1*63
$GPGSV,3,2,12,199,51,140,22,31,45,51,17,27,40,162,28,4,39,321,,1*57
$GPGSV,3,3,12,196,34,163,14,3,30,254,,28,24,79,14,195,21,129,30,1*6C
$BDGSV,4,1,12,40,70,160,,7,65,190,13,6,64,36,,9,60,357,,1*76
$BDGSV,4,2,12,10,55,201,13,20,55,234,13,46,47,304,,37,44,34,,1*40
$BDGSV,4,3,12,59,41,124,33,28,24,91,11,32,21,172,,1*7D
$BDGSV,4,4,12,40,70,160,18,9*43
$GNRMC,160628.000,A,2636.35966,N,10639.80910,E,0.250,183.98,270723,,,A,U*3E
$GNZDA,160628.000,27,07,2023,00,00*42
$GNTXT,01,01,02,ANT_OPEN,B1,*30
$GNGGA,160629.000,2636.35972,N,10639.80912,E,1,09,2.44,1267.4,M,-26.4,M,,*6C
$GNGSA,A,3,199,31,27,196,195,,,,,,,,4.32,2.44,3.57,1*32
$GNGSA,A,3,40,07,10,59,,,,,,,,,4.32,2.44,3.57,4*0C
$GPGSV,3,1,12,16,76,317,,193,62,154,,194,55,57,13,26,52,27,,1*63
$GPGSV,3,2,12,199,51,140,21,31,45,51,17,27,40,162,28,4,39,321,,1*54
$GPGSV,3,3,12,196,34,163,14,3,30,254,,28,24,79,14,195,21,129,30,1*6C
$BDGSV,4,1,12,40,70,160,,7,65,190,13,6,64,36,,9,60,357,,1*76
$BDGSV,4,2,12,20,55,234,13,10,55,201,12,46,47,304,,37,44,34,,1*41
$BDGSV,4,3,12,59,41,124,33,28,24,91,12,32,21,172,,1*7E
$BDGSV,4,4,12,40,70,160,18,9*43
$GNRMC,160629.000,A,2636.35972,N,10639.80912,E,0.451,317.44,270723,,,A,U*31
$GNZDA,160629.000,27,07,2023,00,00*43
$GNTXT,01,01,02,ANT_OPEN,B1,*30
$GNGGA,160630.000,2636.35978,N,10639.80944,E,1,09,2.44,1267.9,M,-26.4,M,,*60
$GNGSA,A,3,199,31,27,196,195,,,,,,,,4.32,2.44,3.57,1*32
$GNGSA,A,3,40,07,10,59,,,,,,,,,4.32,2.44,3.57,4*0C
$GPGSV,3,1,12,16,76,317,,193,62,154,,194,55,57,12,26,52,27,,1*62
$GPGSV,3,2,12,199,51,140,22,31,45,51,16,27,40,162,29,4,39,321,,1*57
$GPGSV,3,3,12,196,34,163,14,3,30,254,,28,24,79,14,195,21,129,30,1*6C
$BDGSV,4,1,12,40,70,160,,7,65,190,13,6,64,36,,9,60,357,,1*76
$BDGSV,4,2,12,20,55,234,13,10,55,201,12,46,47,304,,37,44,34,,1*41
$BDGSV,4,3,12,59,41,124,33,28,24,91,11,32,21,172,,1*7D
$BDGSV,4,4,12,40,70,160,18,9*43
$GNRMC,160630.000,A,2636.35978,N,10639.80944,E,0.361,331.81,270723,,,A,U*39
$GNZDA,160630.000,27,07,2023,00,00*4B
$GNTXT,01,01,02,ANT_OPEN,B1,*30
$GNGGA,160631.000,2636.35978,N,10639.80971,E,1,09,2.44,1268.4,M,-26.4,M,,*65
$GNGSA,A,3,199,31,27,196,195,,,,,,,,4.32,2.44,3.57,1*32
$GNGSA,A,3,40,07,10,59,,,,,,,,,4.32,2.44,3.57,4*0C
$GPGSV,3,1,12,16,76,317,,193,62,154,,194,55,57,12,26,52,27,,1*62
$GPGSV,3,2,12,199,51,140,22,31,45,51,16,27,40,162,29,4,39,321,,1*57
$GPGSV,3,3,12,196,34,163,13,3,30,254,,28,24,79,13,195,21,129,30,1*6C
$BDGSV,4,1,12,40,70,160,,7,65,190,13,6,64,36,,9,60,357,,1*76
$BDGSV,4,2,12,20,55,234,13,10,55,201,12,46,47,304,,37,44,34,,1*41
$BDGSV,4,3,12,59,41,124,33,28,24,91,11,32,21,172,,1*7D
$BDGSV,4,4,12,40,70,160,18,9*43
$GNRMC,160631.000,A,2636.35978,N,10639.80971,E,0.196,279.05,270723,,,A,U*35
$GNZDA,160631.000,27,07,2023,00,00*4A
$GNTXT,01,01,02,ANT_OPEN,B1,*30
$GNGGA,160632.000,2636.35969,N,10639.81009,E,1,09,2.44,1268.9,M,-26.4,M,,*6C
$GNGSA,A,3,199,31,27,196,195,,,,,,,,4.32,2.44,3.57,1*32
$GNGSA,A,3,40,07,10,59,,,,,,,,,4.32,2.44,3.57,4*0C
$GPGSV,3,1,12,16,76,317,,193,62,154,,194,55,57,11,26,52,27,,1*61
$GPGSV,3,2,12,199,51,140,22,31,45,51,15,27,40,162,29,4,39,321,,1*54
$GPGSV,3,3,12,196,34,163,13,3,30,254,,28,24,79,13,195,21,129,30,1*6C
$BDGSV,4,1,12,40,70,160,,7,65,190,13,6,64,36,,9,60,357,,1*76
$BDGSV,4,2,12,20,55,234,13,10,55,201,12,46,47,304,,37,44,34,,1*41
$BDGSV,4,3,12,59,41,124,33,28,24,91,11,32,21,172,,1*7D
$BDGSV,4,4,12,40,70,160,18,9*43
$GNRMC,160632.000,A,2636.35969,N,10639.81009,E,0.402,170.55,270723,,,A,U*36
$GNZDA,160632.000,27,07,2023,00,00*49
$GNTXT,01,01,02,ANT_OPEN,B1,*30
$GNGGA,160633.000,2636.35962,N,10639.81010,E,1,09,2.44,1268.7,M,-26.4,M,,*60
$GNGSA,A,3,199,31,27,196,195,,,,,,,,4.33,2.44,3.57,1*33
$GNGSA,A,3,40,07,10,59,,,,,,,,,4.33,2.44,3.57,4*0D
$GPGSV,3,1,12,16,76,317,,193,62,154,,194,55,57,11,26,52,27,,1*61
$GPGSV,3,2,12,199,51,140,21,31,45,51,15,27,40,162,29,4,39,321,,1*57
$GPGSV,3,3,12,196,34,163,13,3,30,254,,28,24,79,13,195,21,129,29,1*64
$BDGSV,4,1,12,40,70,160,,7,65,190,13,6,64,36,,9,60,357,,1*76
$BDGSV,4,2,12,20,55,234,13,10,55,201,12,46,47,304,,37,44,34,,1*41
$BDGSV,4,3,12,59,41,124,33,28,24,91,11,32,21,172,,1*7D
$BDGSV,4,4,12,40,70,160,19,9*42
$GNRMC,160633.000,A,2636.35962,N,10639.81010,E,0.272,180.92,270723,,,A,U*31
$GNZDA,160633.000,27,07,2023,00,00*48
$GNTXT,01,01,02,ANT_OPEN,B1,*30
$GNGGA,160634.000,2636.35975,N,10639.81015,E,1,09,2.44,1268.8,M,-26.4,M,,*6B
$GNGSA,A,3,199,31,27,196,195,,,,,,,,4.33,2.44,3.57,1*33
$GNGSA,A,3,40,07,10,59,,,,,,,,,4.33,2.44,3.57,4*0D
$GPGSV,3,1,12,16,76,317,,193,62,154,,194,55,57,11,26,52,27,,1*61
$GPGSV,3,2,12,199,51,140,22,31,45,51,14,27,40,162,28,4,39,321,,1*54
$GPGSV,3,3,12,196,34,163,13,3,30,254,,28,24,79,12,195,21,129,29,1*65
$BDGSV,4,1,12,40,70,160,,7,65,190,13,6,64,36,,9,60,357,,1*76
$BDGSV,4,2,12,10,55,201,12,20,55,234,13,46,47,304,,37,44,34,,1*41
$BDGSV,4,3,12,59,41,124,33,28,24,91,11,32,21,172,,1*7D
$BDGSV,4,4,12,40,70,160,19,9*42
$GNRMC,160634.000,A,2636.35975,N,10639.81015,E,0.383,308.46,270723,,,A,U*31
$GNZDA,160634.000,27,07,2023,00,00*4F
$GNTXT,01,01,02,ANT_OPEN,B1,*30
$GNGGA,160635.000,2636.35994,N,10639.81017,E,1,10,2.40,1268.9,M,-26.4,M,,*6A
$GNGSA,A,3,199,31,27,196,195,,,,,,,,4.21,2.40,3.45,1*37
$GNGSA,A,3,40,07,10,20,59,,,,,,,,4.21,2.40,3.45,4*0B
$GPGSV,3,1,12,16,76,317,,193,62,154,,194,55,57,10,26,52,27,,1*60
$GPGSV,3,2,12,199,51,140,22,31,45,51,14,27,40,162,28,4,39,321,,1*54
$GPGSV,3,3,12,196,34,163,14,3,30,254,,28,24,79,12,195,21,129,28,1*63
$BDGSV,4,1,12,40,70,160,,7,65,190,14,6,64,36,,9,60,357,,1*71
$BDGSV,4,2,12,10,55,201,12,20,55,234,13,46,47,304,,37,44,34,,1*41
$BDGSV,4,3,12,59,41,124,33,28,24,91,10,32,21,172,,1*7C
$BDGSV,4,4,12,40,70,160,20,9*48
$GNRMC,160635.000,A,2636.35994,N,10639.81017,E,0.417,327.92,270723,,,A,U*33
$GNZDA,160635.000,27,07,2023,00,00*4E
$GNTXT,01,01,02,ANT_OPEN,B1,*30
$GNGGA,160636.000,2636.35965,N,10639.81054,E,1,10,2.40,1269.5,M,-26.4,M,,*6D
$GNGSA,A,3,199,31,27,196,195,,,,,,,,4.21,2.40,3.45,1*37
$GNGSA,A,3,40,07,10,20,59,,,,,,,,4.21,2.40,3.45,4*0B
$GPGSV,3,1,12,16,76,317,,193,62,154,,194,55,57,10,26,52,27,,1*60
$GPGSV,3,2,12,199,51,140,22,31,45,51,14,27,40,162,28,4,39,321,,1*54
$GPGSV,3,3,12,196,34,163,14,3,30,254,,28,24,79,12,195,21,129,28,1*63
$BDGSV,4,1,12,40,70,160,,7,65,190,14,6,64,36,,9,60,357,,1*71
$BDGSV,4,2,12,10,55,201,12,20,55,234,13,46,47,304,,37,44,34,,1*41
$BDGSV,4,3,12,59,41,124,33,28,24,91,10,32,21,172,,1*7C
$BDGSV,4,4,12,40,70,160,20,9*48
$GNRMC,160636.000,A,2636.35965,N,10639.81054,E,1.133,158.81,270723,,,A,U*33
$GNZDA,160636.000,27,07,2023,00,00*4D
$GNTXT,01,01,02,ANT_OPEN,B1,*30
$GNGGA,160637.000,2636.35978,N,10639.81059,E,1,10,2.40,1269.3,M,-26.4,M,,*6B
$GNGSA,A,3,199,31,27,196,195,,,,,,,,4.21,2.40,3.45,1*37
$GNGSA,A,3,40,07,10,20,59,,,,,,,,4.21,2.40,3.45,4*0B
$GPGSV,3,1,12,16,76,317,,193,62,154,,194,55,57,10,26,51,27,,1*63
$GPGSV,3,2,12,199,51,140,22,31,45,51,14,27,40,162,28,4,39,321,,1*54
$GPGSV,3,3,12,196,34,163,13,3,30,254,,28,24,79,12,195,21,129,28,1*64
$BDGSV,4,1,12,40,70,160,,7,65,190,14,6,64,36,,9,60,357,,1*71
$BDGSV,4,2,12,10,55,201,11,20,55,234,13,46,47,304,,37,44,34,,1*42
$BDGSV,4,3,12,59,41,124,33,28,24,91,10,32,21,172,,1*7C
$BDGSV,4,4,12,40,70,160,20,9*48
$GNRMC,160637.000,A,2636.35978,N,10639.81059,E,0.611,154.67,270723,,,A,U*31
$GNZDA,160637.000,27,07,2023,00,00*4C
$GNTXT,01,01,02,ANT_OPEN,B1,*30
$GNGGA,160638.000,2636.36038,N,10639.81031,E,1,10,2.40,1268.5,M,-26.4,M,,*63
$GNGSA,A,3,199,31,27,196,195,,,,,,,,4.21,2.40,3.45,1*37
$GNGSA,A,3,40,07,10,20,59,,,,,,,,4.21,2.40,3.45,4*0B
$GPGSV,3,1,12,16,76,317,,193,62,154,,194,55,57,10,26,51,27,,1*63
$GPGSV,3,2,12,199,51,140,22,31,45,51,14,27,40,162,28,4,39,321,,1*54
$GPGSV,3,3,12,196,34,163,13,3,30,254,,28,24,79,11,195,21,129,28,1*67
$BDGSV,4,1,12,40,70,160,,7,65,190,14,6,64,36,,9,60,357,,1*71
$BDGSV,4,2,12,10,55,201,11,20,55,234,12,46,47,304,,37,44,34,,1*43
$BDGSV,4,3,12,59,41,124,34,28,24,91,,32,21,172,,1*7A
$BDGSV,4,4,12,40,70,160,20,9*48
$GNRMC,160638.000,A,2636.36038,N,10639.81031,E,1.170,319.85,270723,,,A,U*38
$GNZDA,160638.000,27,07,2023,00,00*43
$GNTXT,01,01,02,ANT_OPEN,B1,*30
$GNGGA,160639.000,2636.36141,N,10639.80979,E,1,10,2.40,1267.9,M,-26.4,M,,*6A
$GNGSA,A,3,199,31,27,196,195,,,,,,,,4.21,2.40,3.45,1*37
$GNGSA,A,3,40,07,10,20,59,,,,,,,,4.21,2.40,3.45,4*0B
$GPGSV,3,1,12,16,76,317,,193,62,154,,194,55,57,10,26,51,27,,1*63
$GPGSV,3,2,12,199,51,140,22,31,45,51,14,27,40,162,28,4,39,321,,1*54
$GPGSV,3,3,12,196,34,163,13,3,30,254,,28,24,79,11,195,21,129,28,1*67
$BDGSV,4,1,12,40,70,160,,7,65,190,14,6,64,36,,9,60,357,,1*71
$BDGSV,4,2,12,10,55,201,10,20,55,234,12,46,47,304,,37,44,34,,1*42
$BDGSV,4,3,12,59,41,124,33,28,24,91,,32,21,172,,1*7D
$BDGSV,4,4,12,40,70,160,21,9*49
$GNRMC,160639.000,A,2636.36141,N,10639.80979,E,1.864,329.82,270723,,,A,U*3A
$GNZDA,160639.000,27,07,2023,00,00*42
$GNTXT,01,01,02,ANT_OPEN,B1,*30
$GNGGA,160640.000,2636.36205,N,10639.80950,E,1,10,2.40,1267.7,M,-26.4,M,,*62
$GNGSA,A,3,199,31,27,196,195,,,,,,,,4.21,2.40,3.45,1*37
$GNGSA,A,3,40,07,10,20,59,,,,,,,,4.21,2.40,3.45,4*0B
$GPGSV,4,1,13,16,76,317,,193,62,154,,194,55,57,10,26,51,27,,1*65
$GPGSV,4,2,13,199,51,140,23,31,45,51,14,27,40,162,28,4,39,321,,1*53
$GPGSV,4,3,13,196,34,163,13,3,30,254,,28,24,79,10,195,21,129,28,1*60
$GPGSV,4,4,13,32,12,142,19,1*5B
$BDGSV,4,1,11,40,70,160,,7,65,190,14,6,64,36,,9,60,357,,1*72
$BDGSV,4,2,11,10,55,201,10,20,55,234,12,46,47,304,,37,44,34,,1*41
$BDGSV,4,3,11,59,41,124,33,28,24,91,,1*48
$BDGSV,4,4,11,40,70,160,21,9*4A
$GNRMC,160640.000,A,2636.36205,N,10639.80950,E,1.792,331.04,270723,,,A,U*3D
$GNZDA,160640.000,27,07,2023,00,00*4C
$GNTXT,01,01,02,ANT_OPEN,B1,*30
$GNGGA,160641.000,2636.36293,N,10639.80934,E,1,11,1.72,1267.6,M,-26.4,M,,*6C
$GNGSA,A,3,199,31,27,196,195,32,,,,,,,2.89,1.72,2.32,1*31
$GNGSA,A,3,40,07,10,20,59,,,,,,,,2.89,1.72,2.32,4*0C
$GPGSV,4,1,13,16,76,317,,193,62,154,,194,55,57,9,26,51,27,,1*5D
$GPGSV,4,2,13,199,51,140,22,31,45,51,13,27,40,162,28,4,39,321,,1*55
$GPGSV,4,3,13,196,34,163,13,3,30,254,,28,24,79,10,195,21,129,28,1*60
$GPGSV,4,4,13,32,12,142,19,1*5B
$BDGSV,4,1,11,40,70,160,,7,65,190,14,6,64,36,,9,60,357,,1*72
$BDGSV,4,2,11,10,55,201,10,20,55,234,12,46,47,304,,37,44,34,,1*41
$BDGSV,4,3,11,59,41,124,33,28,24,91,,1*48
$BDGSV,4,4,11,40,70,160,21,9*4A
$GNRMC,160641.000,A,2636.36293,N,10639.80934,E,2.031,327.86,270723,,,A,U*31
$GNZDA,160641.000,27,07,2023,00,00*4D
$GNTXT,01,01,02,ANT_OPEN,B1,*30
$GNGGA,160642.000,2636.36295,N,10639.80976,E,1,11,1.72,1268.7,M,-26.4,M,,*61
$GNGSA,A,3,199,31,27,196,195,32,,,,,,,2.89,1.72,2.32,1*31
$GNGSA,A,3,40,07,10,20,59,,,,,,,,2.89,1.72,2.32,4*0C
$GPGSV,4,1,13,16,76,317,,193,62,154,,194,55,57,9,26,51,27,,1*5D
$GPGSV,4,2,13,199,51,140,22,31,45,51,13,27,40,162,28,4,39,321,,1*55
$GPGSV,4,3,13,196,34,163,13,3,30,254,,28,24,79,,195,21,129,29,1*60
$GPGSV,4,4,13,32,12,142,19,1*5B
$BDGSV,4,1,11,40,70,160,,7,65,190,14,6,64,36,,9,60,357,,1*72
$BDGSV,4,2,11,10,55,201,10,20,55,234,12,46,47,304,,37,44,34,,1*41
$BDGSV,4,3,11,59,41,124,33,28,24,91,,1*48
$BDGSV,4,4,11,40,70,160,21,9*4A
$GNRMC,160642.000,A,2636.36295,N,10639.80976,E,0.908,327.88,270723,,,A,U*3D
$GNZDA,160642.000,27,07,2023,00,00*4E
$GNTXT,01,01,02,ANT_OPEN,B1,*30
$GNGGA,160643.000,2636.36286,N,10639.81003,E,1,10,3.21,1269.2,M,-26.4,M,,*69
$GNGSA,A,3,199,27,196,195,32,,,,,,,,4.25,3.21,2.78,1*39
$GNGSA,A,3,40,07,10,20,59,,,,,,,,4.25,3.21,2.78,4*06
$GPGSV,4,1,13,16,76,317,,193,62,154,,194,55,57,9,26,51,27,,1*5D
$GPGSV,4,2,13,199,51,140,23,31,45,51,13,27,40,162,28,4,39,321,,1*54
$GPGSV,4,3,13,196,34,163,12,3,30,254,,28,24,79,,195,21,129,29,1*61
$GPGSV,4,4,13,32,12,142,19,1*5B
$BDGSV,4,1,11,40,70,160,,7,65,190,14,6,64,36,,9,60,357,,1*72
$BDGSV,4,2,11,10,55,201,10,20,55,234,12,46,47,304,,37,44,34,,1*41
$BDGSV,4,3,11,59,41,124,33,28,24,91,,1*48
$BDGSV,4,4,11,40,70,160,21,9*4A
$GNRMC,160643.000,A,2636.36286,N,10639.81003,E,0.156,327.88,270723,,,A,U*37
$GNZDA,160643.000,27,07,2023,00,00*4F
$GNTXT,01,01,02,ANT_OPEN,B1,*30
$GNGGA,160644.000,2636.36343,N,10639.80979,E,1,09,4.63,1268.6,M,-26.4,M,,*6F
$GNGSA,A,3,199,27,196,195,32,,,,,,,,6.18,4.63,4.10,1*3C
$GNGSA,A,3,40,07,10,59,,,,,,,,,6.18,4.63,4.10,4*01
$GPGSV,4,1,13,16,76,317,,193,62,154,,194,55,57,9,26,51,27,,1*5D
$GPGSV,4,2,13,199,51,140,23,31,45,51,13,27,40,162,28,4,39,321,,1*54
$GPGSV,4,3,13,196,34,163,12,3,30,254,,28,24,79,,195,21,129,29,1*61
$GPGSV,4,4,13,32,12,142,19,1*5B
$BDGSV,4,1,11,40,70,160,,7,65,190,14,6,64,36,,9,60,357,,1*72
$BDGSV,4,2,11,10,55,201,10,20,55,234,12,46,47,304,,37,44,34,,1*41
$BDGSV,4,3,11,59,41,124,33,28,24,91,,1*48
$BDGSV,4,4,11,40,70,160,21,9*4A
$GNRMC,160644.000,A,2636.36343,N,10639.80979,E,0.448,317.96,270723,,,A,U*3B
$GNZDA,160644.000,27,07,2023,00,00*48
$GNTXT,01,01,02,ANT_OPEN,B1,*30
$GNGGA,160645.000,2636.36351,N,10639.81004,E,1,09,4.63,1269.0,M,-26.4,M,,*68
$GNGSA,A,3,199,27,196,195,32,,,,,,,,6.18,4.63,4.10,1*3C
$GNGSA,A,3,40,07,10,59,,,,,,,,,6.18,4.63,4.10,4*01
$GPGSV,4,1,13,16,76,318,,193,62,154,,194,55,57,9,26,51,27,,1*52
$GPGSV,4,2,13,199,51,140,23,31,45,51,12,27,40,162,28,4,39,321,,1*55
$GPGSV,4,3,13,196,34,163,13,3,30,254,,28,24,79,,195,21,129,29,1*60
$GPGSV,4,4,13,32,12,142,19,1*5B
$BDGSV,4,1,11,40,70,160,,7,65,190,14,6,64,36,,9,60,357,,1*72
$BDGSV,4,2,11,10,56,201,10,20,55,234,12,46,47,304,,37,44,34,,1*42
$BDGSV,4,3,11,59,41,124,32,28,24,91,,1*49
$BDGSV,4,4,11,40,70,160,21,9*4A
$GNRMC,160645.000,A,2636.36351,N,10639.81004,E,0.169,317.96,270723,,,A,U*3D
$GNZDA,160645.000,27,07,2023,00,00*49
$GNTXT,01,01,02,ANT_OPEN,B1,*30
$GNGGA,160646.000,2636.36439,N,10639.80949,E,1,09,4.63,1267.9,M,-26.4,M,,*64
$GNGSA,A,3,199,27,196,195,32,,,,,,,,6.18,4.63,4.10,1*3C
$GNGSA,A,3,40,07,10,59,,,,,,,,,6.18,4.63,4.10,4*01
$GPGSV,4,1,13,16,76,318,,193,62,154,,194,55,57,8,26,51,27,,1*53
$GPGSV,4,2,13,199,51,140,23,31,45,51,12,27,40,162,28,4,39,321,,1*55
$GPGSV,4,3,13,196,34,163,13,3,30,254,,28,24,79,,195,21,129,29,1*60
$GPGSV,4,4,13,32,12,142,20,1*51
$BDGSV,4,1,11,40,70,160,,7,65,190,14,6,64,36,,9,60,357,,1*72
$BDGSV,4,2,11,10,56,201,10,20,55,234,12,46,47,304,,37,44,34,,1*42
$BDGSV,4,3,11,59,41,124,33,28,24,91,,1*48
$BDGSV,4,4,11,40,70,160,20,9*4B
$GNRMC,160646.000,A,2636.36439,N,10639.80949,E,1.000,325.26,270723,,,A,U*33
$GNZDA,160646.000,27,07,2023,00,00*4A
$GNTXT,01,01,02,ANT_OPEN,B1,*30
$GNGGA,160647.000,2636.36458,N,10639.80950,E,1,10,3.22,1268.0,M,-26.4,M,,*66
$GNGSA,A,3,199,27,196,195,32,,,,,,,,4.25,3.22,2.78,1*3A
$GNGSA,A,3,40,07,10,20,59,,,,,,,,4.25,3.22,2.78,4*05
$GPGSV,4,1,13,16,76,318,,193,62,154,,194,55,57,8,26,51,27,,1*53
$GPGSV,4,2,13,199,51,140,23,31,45,51,12,27,40,162,28,4,39,321,,1*55
$GPGSV,4,3,13,196,34,163,13,3,30,254,,28,24,79,,195,21,129,29,1*60
$GPGSV,4,4,13,32,12,142,19,1*5B
$BDGSV,4,1,11,40,70,160,,7,65,190,14,6,64,36,,9,60,357,,1*72
$BDGSV,4,2,11,10,56,201,10,20,55,234,12,46,47,304,,37,44,34,,1*42
$BDGSV,4,3,11,59,41,124,33,28,24,91,,1*48
$BDGSV,4,4,11,40,70,160,20,9*4B
$GNRMC,160647.000,A,2636.36458,N,10639.80950,E,0.576,329.03,270723,,,A,U*33
$GNZDA,160647.000,27,07,2023,00,00*4B
$GNTXT,01,01,02,ANT_OPEN,B1,*30
$GNGGA,160648.000,2636.36504,N,10639.80922,E,1,09,4.63,1267.3,M,-26.4,M,,*62
$GNGSA,A,3,199,27,196,195,32,,,,,,,,6.18,4.63,4.09,1*34
$GNGSA,A,3,40,07,10,59,,,,,,,,,6.18,4.63,4.09,4*09
$GPGSV,4,1,13,16,76,318,,193,62,154,,194,55,57,8,26,51,27,,1*53
$GPGSV,4,2,13,199,51,140,23,31,45,51,12,27,40,162,27,4,39,321,,1*5A
$GPGSV,4,3,13,196,34,163,13,3,30,254,,28,24,79,,195,21,129,29,1*60
$GPGSV,4,4,13,32,12,142,20,1*51
$BDGSV,4,1,11,40,70,160,,7,65,190,13,6,64,36,,9,60,357,,1*75
$BDGSV,4,2,11,10,56,201,10,20,55,234,12,46,47,304,,37,44,34,,1*42
$BDGSV,4,3,11,59,41,124,33,28,24,91,,1*48
$BDGSV,4,4,11,40,70,160,21,9*4A
$GNRMC,160648.000,A,2636.36504,N,10639.80922,E,0.691,321.52,270723,,,A,U*37
$GNZDA,160648.000,27,07,2023,00,00*44
$GNTXT,01,01,02,ANT_OPEN,B1,*30
$GNGGA,160649.000,2636.36586,N,10639.80891,E,1,10,3.22,1266.7,M,-26.4,M,,*6F
$GNGSA,A,3,199,27,196,195,32,,,,,,,,4.25,3.22,2.78,1*3A
$GNGSA,A,3,40,07,10,20,59,,,,,,,,4.25,3.22,2.78,4*05
$GPGSV,4,1,13,16,76,318,,193,62,154,,194,55,57,,26,51,27,,1*6B
$GPGSV,4,2,13,199,51,140,23,31,45,51,12,27,40,162,27,4,39,321,,1*5A
$GPGSV,4,3,13,196,34,163,13,3,30,254,,28,24,79,,195,21,129,29,1*60
$GPGSV,4,4,13,32,12,142,20,1*51
$BDGSV,4,1,11,40,70,160,,7,65,190,13,6,64,36,,9,60,357,,1*75
$BDGSV,4,2,11,10,56,201,10,20,55,234,12,46,47,304,,37,44,34,,1*42
$BDGSV,4,3,11,59,41,124,33,28,24,91,,1*48
$BDGSV,4,4,11,40,70,160,21,9*4A
$GNRMC,160649.000,A,2636.36586,N,10639.80891,E,0.940,321.24,270723,,,A,U*37
$GNZDA,160649.000,27,07,2023,00,00*45
$GNTXT,01,01,02,ANT_OPEN,B1,*30
$GNGGA,160650.000,2636.36619,N,10639.80885,E,1,10,3.22,1266.4,M,-26.4,M,,*64
$GNGSA,A,3,199,27,196,195,32,,,,,,,,4.25,3.22,2.78,1*3A
$GNGSA,A,3,40,07,10,20,59,,,,,,,,4.25,3.22,2.78,4*05
$GPGSV,4,1,13,16,76,318,,193,62,154,,194,55,57,,26,51,27,,1*6B
$GPGSV,4,2,13,199,51,140,23,31,45,52,12,27,40,162,27,4,39,321,,1*59
$GPGSV,4,3,13,196,34,163,13,3,30,254,,28,24,79,,195,21,129,29,1*60
$GPGSV,4,4,13,32,12,142,20,1*51
$BDGSV,4,1,11,40,70,160,,7,65,190,13,6,64,36,,9,60,357,,1*75
$BDGSV,4,2,11,10,56,201,10,20,55,234,12,46,47,304,,37,44,34,,1*42
$BDGSV,4,3,11,59,41,124,33,28,24,91,,1*48
$BDGSV,4,4,11,40,70,160,21,9*4A
$GNRMC,160650.000,A,2636.36619,N,10639.80885,E,0.153,321.24,270723,,,A,U*35
$GNZDA,160650.000,27,07,2023,00,00*4D
$GNTXT,01,01,02,ANT_OPEN,B1,*30
$GNGGA,160651.000,2636.36676,N,10639.80859,E,1,10,3.22,1265.5,M,-26.4,M,,*6F
$GNGSA,A,3,199,27,196,195,32,,,,,,,,4.25,3.22,2.78,1*3A
$GNGSA,A,3,40,07,10,20,59,,,,,,,,4.25,3.22,2.78,4*05
$GPGSV,4,1,13,16,76,318,,193,62,154,,194,55,57,,26,51,27,,1*6B
$GPGSV,4,2,13,199,51,140,23,31,45,52,12,27,40,162,27,4,39,321,,1*59
$GPGSV,4,3,13,196,34,163,13,3,30,254,,28,24,79,,195,21,129,29,1*60
$GPGSV,4,4,13,32,12,142,20,1*51
$BDGSV,4,1,11,40,70,160,,7,65,190,13,6,64,36,,9,60,357,,1*75
$BDGSV,4,2,11,10,56,201,9,20,55,234,11,46,47,304,,37,44,34,,1*79
$BDGSV,4,3,11,59,41,124,33,28,24,91,,1*48
$BDGSV,4,4,11,40,70,160,21,9*4A
$GNRMC,160651.000,A,2636.36676,N,10639.80859,E,0.247,291.24,270723,,,A,U*30
$GNZDA,160651.000,27,07,2023,00,00*4C
$GNTXT,01,01,02,ANT_OPEN,B1,*30
$GNGGA,160652.000,2636.36659,N,10639.80882,E,1,10,3.22,1265.6,M,-26.4,M,,*64
$GNGSA,A,3,199,27,196,195,32,,,,,,,,4.25,3.22,2.78,1*3A
$GNGSA,A,3,40,07,10,20,59,,,,,,,,4.25,3.22,2.78,4*05
$GPGSV,4,1,13,16,76,318,,193,62,154,,194,55,57,,26,51,27,,1*6B
$GPGSV,4,2,13,199,51,140,23,31,45,52,12,27,40,162,27,4,39,321,,1*59
$GPGSV,4,3,13,196,34,163,13,3,30,254,16,28,24,79,,195,21,129,29,1*67
$GPGSV,4,4,13,32,12,142,20,1*51
$BDGSV,4,1,11,40,70,160,,7,65,190,13,6,64,36,,9,60,357,,1*75
$BDGSV,4,2,11,10,56,201,9,20,55,234,12,46,47,304,,37,44,34,,1*7A
$BDGSV,4,3,11,59,41,124,33,28,24,91,,1*48
$BDGSV,4,4,11,40,70,160,21,9*4A
$GNRMC,160652.000,A,2636.36659,N,10639.80882,E,0.624,160.55,270723,,,A,U*32
$GNZDA,160652.000,27,07,2023,00,00*4F
$GNTXT,01,01,02,ANT_OPEN,B1,*30
$GNGGA,160653.000,2636.36689,N,10639.80872,E,1,10,3.22,1264.8,M,-26.4,M,,*68
$GNGSA,A,3,199,27,196,195,32,,,,,,,,4.25,3.22,2.78,1*3A
$GNGSA,A,3,40,07,10,20,59,,,,,,,,4.25,3.22,2.78,4*05
$GPGSV,4,1,13,16,76,318,,193,62,154,,194,55,57,,26,51,27,,1*6B
$GPGSV,4,2,13,199,51,140,23,31,45,52,12,27,40,162,27,4,39,321,,1*59
$GPGSV,4,3,13,196,34,163,13,3,30,254,15,28,24,79,,195,21,129,29,1*64
$GPGSV,4,4,13,32,11,142,20,1*52
$BDGSV,4,1,11,40,70,160,,7,65,190,13,6,64,36,,9,60,357,,1*75
$BDGSV,4,2,11,10,56,201,9,20,55,234,11,46,47,304,,37,44,34,,1*79
$BDGSV,4,3,11,59,41,124,32,28,24,91,,1*49
$BDGSV,4,4,11,40,70,160,21,9*4A
$GNRMC,160653.000,A,2636.36689,N,10639.80872,E,0.395,166.05,270723,,,A,U*3D
$GNZDA,160653.000,27,07,2023,00,00*4E
$GNTXT,01,01,02,ANT_OPEN,B1,*30
$GNGGA,160654.000,2636.36698,N,10639.80876,E,1,11,2.48,1264.3,M,-26.4,M,,*6C
$GNGSA,A,3,199,27,196,03,195,32,,,,,,,2.96,2.48,1.62,1*32
$GNGSA,A,3,40,07,10,20,59,,,,,,,,2.96,2.48,1.62,4*0E
$GPGSV,4,1,13,16,76,318,,193,62,154,,194,55,57,,26,51,27,,1*6B
$GPGSV,4,2,13,199,51,140,23,31,45,52,12,27,40,162,27,4,39,321,,1*59
$GPGSV,4,3,13,196,34,163,13,3,30,254,15,28,24,79,,195,21,129,29,1*64
$GPGSV,4,4,13,32,11,142,20,1*52
$BDGSV,4,1,11,40,70,160,,7,65,190,13,6,64,36,,9,60,357,,1*75
$BDGSV,4,2,11,10,56,201,9,20,55,234,12,46,47,304,,37,44,34,,1*7A
$BDGSV,4,3,11,59,41,124,32,28,24,91,,1*49
$BDGSV,4,4,11,40,70,160,22,9*49
$GNRMC,160654.000,A,2636.36698,N,10639.80876,E,0.555,163.75,270723,,,A,U*36
$GNZDA,160654.000,27,07,2023,00,00*49
$GNTXT,01,01,02,ANT_OPEN,B1,*30
$GNGGA,160655.000,2636.36715,N,10639.80873,E,1,10,3.22,1263.6,M,-26.4,M,,*62
$GNGSA,A,3,199,27,196,195,32,,,,,,,,4.25,3.22,2.78,1*3A
$GNGSA,A,3,40,07,10,20,59,,,,,,,,4.25,3.22,2.78,4*05
$GPGSV,4,1,13,16,76,318,,193,62,154,,194,55,57,,26,51,27,,1*6B
$GPGSV,4,2,13,199,51,140,23,31,45,52,12,27,41,162,26,4,39,321,,1*59
$GPGSV,4,3,13,196,34,163,13,3,30,254,15,28,24,79,,195,21,129,28,1*65
$GPGSV,4,4,13,32,11,142,20,1*52
$BDGSV,4,1,11,40,70,160,,7,65,190,12,6,64,36,,9,60,357,,1*74
$BDGSV,4,2,11,10,56,201,9,20,55,233,12,46,47,304,,37,44,34,,1*7D
$BDGSV,4,3,11,59,41,124,32,28,24,91,,1*49
$BDGSV,4,4,11,40,70,160,22,9*49
$GNRMC,160655.000,A,2636.36715,N,10639.80873,E,0.460,175.79,270723,,,A,U*3A
$GNZDA,160655.000,27,07,2023,00,00*48
$GNTXT,01,01,02,ANT_OPEN,B1,*30
$GNGGA,160656.000,2636.36717,N,10639.80874,E,1,11,2.48,1263.3,M,-26.4,M,,*6D
$GNGSA,A,3,199,27,196,03,195,32,,,,,,,2.96,2.48,1.62,1*32
$GNGSA,A,3,40,07,10,20,59,,,,,,,,2.96,2.48,1.62,4*0E
$GPGSV,4,1,13,16,76,318,,193,62,154,,194,55,57,,26,51,27,,1*6B
$GPGSV,4,2,13,199,51,140,24,31,45,52,12,27,41,162,26,4,39,321,,1*5E
$GPGSV,4,3,13,196,34,163,13,3,30,254,15,28,24,79,,195,21,129,28,1*65
$GPGSV,4,4,13,32,11,142,20,1*52
$BDGSV,4,1,11,40,70,160,,7,65,190,12,6,64,36,,9,60,357,,1*74
$BDGSV,4,2,11,10,56,201,8,20,55,233,12,46,47,304,,37,44,34,,1*7C
$BDGSV,4,3,11,59,41,124,32,28,24,91,,1*49
$BDGSV,4,4,11,40,70,160,22,9*49
$GNRMC,160656.000,A,2636.36717,N,10639.80874,E,0.192,175.79,270723,,,A,U*34
$GNZDA,160656.000,27,07,2023,00,00*4B
$GNTXT,01,01,02,ANT_OPEN,B1,*30
$GNGGA,160657.000,2636.36722,N,10639.80890,E,1,10,3.22,1263.1,M,-26.4,M,,*6E
$GNGSA,A,3,199,27,196,195,32,,,,,,,,4.25,3.22,2.78,1*3A
$GNGSA,A,3,40,07,10,20,59,,,,,,,,4.25,3.22,2.78,4*05
$GPGSV,4,1,13,16,76,318,,193,62,154,,194,55,57,,26,51,27,,1*6B
$GPGSV,4,2,13,199,51,140,24,31,45,52,11,27,41,162,26,4,39,321,,1*5D
$GPGSV,4,3,13,196,34,163,13,3,30,254,15,28,24,79,,195,21,129,28,1*65
$GPGSV,4,4,13,32,11,142,20,1*52
$BDGSV,4,1,11,40,70,160,,7,65,190,12,6,64,36,,9,60,357,,1*74
$BDGSV,4,2,11,10,56,201,8,20,55,233,11,46,47,304,,37,44,34,,1*7F
$BDGSV,4,3,11,59,41,124,32,28,24,91,,1*49
$BDGSV,4,4,11,40,70,160,22,9*49
$GNRMC,160657.000,A,2636.36722,N,10639.80890,E,0.199,178.86,270723,,,A,U*3F
$GNZDA,160657.000,27,07,2023,00,00*4A
$GNTXT,01,01,02,ANT_OPEN,B1,*30
$GNGGA,160658.000,2636.36719,N,10639.80907,E,1,10,3.22,1262.8,M,-26.4,M,,*6E
$GNGSA,A,3,199,27,196,195,32,,,,,,,,4.25,3.22,2.78,1*3A
$GNGSA,A,3,40,07,10,20,59,,,,,,,,4.25,3.22,2.78,4*05
$GPGSV,4,1,13,16,76,318,,193,62,154,,194,55,57,,26,51,27,,1*6B
$GPGSV,4,2,13,199,51,140,23,31,45,52,11,27,41,162,26,4,39,321,,1*5A
$GPGSV,4,3,13,196,34,163,13,3,30,254,14,28,24,79,,195,21,129,29,1*65
$GPGSV,4,4,13,32,11,142,19,1*58
$BDGSV,4,1,11,40,70,160,,7,65,190,12,6,64,36,,9,60,357,,1*74
$BDGSV,4,2,11,10,56,201,8,20,55,233,12,46,47,304,,37,44,34,,1*7C
$BDGSV,4,3,11,59,41,124,32,28,24,91,,1*49
$BDGSV,4,4,11,40,70,160,21,9*4A
$GNRMC,160658.000,A,2636.36719,N,10639.80907,E,0.494,168.86,270723,,,A,U*3E
$GNZDA,160658.000,27,07,2023,00,00*45
$GNTXT,01,01,02,ANT_OPEN,B1,*30
$GNGGA,160659.000,2636.36728,N,10639.80915,E,1,11,2.48,1262.4,M,-26.4,M,,*6E
$GNGSA,A,3,199,27,196,03,195,32,,,,,,,2.96,2.48,1.62,1*32
$GNGSA,A,3,40,07,10,20,59,,,,,,,,2.96,2.48,1.62,4*0E
$GPGSV,4,1,13,16,76,318,,193,62,154,,194,55,57,,26,51,27,,1*6B
$GPGSV,4,2,13,199,51,140,23,31,45,52,11,27,41,162,26,4,39,321,,1*5A
$GPGSV,4,3,13,196,34,163,13,3,30,254,14,28,24,80,,195,21,129,29,1*63
$GPGSV,4,4,13,32,11,142,19,1*58
$BDGSV,4,1,11,40,70,160,,7,65,190,12,6,64,36,,9,60,357,,1*74
$BDGSV,4,2,11,10,56,201,8,20,55,233,12,46,47,304,,37,44,34,,1*7C
$BDGSV,4,3,11,59,41,124,32,28,24,91,,1*49
$BDGSV,4,4,11,40,70,160,21,9*4A
$GNRMC,160659.000,A,2636.36728,N,10639.80915,E,0.404,156.71,270723,,,A,U*32
$GNZDA,160659.000,27,07,2023,00,00*44
$GNTXT,01,01,02,ANT_OPEN,B1,*30
$GNGGA,160700.000,2636.36782,N,10639.80881,E,1,10,3.22,1261.5,M,-26.4,M,,*61
$GNGSA,A,3,199,27,196,195,32,,,,,,,,4.25,3.22,2.78,1*3A
$GNGSA,A,3,40,07,10,20,59,,,,,,,,4.25,3.22,2.78,4*05
$GPGSV,4,1,13,16,76,318,,193,62,154,,194,55,57,,26,51,27,,1*6B
$GPGSV,4,2,13,199,51,140,23,31,45,52,11,27,41,162,26,4,39,321,,1*5A
$GPGSV,4,3,13,196,34,163,13,3,30,254,14,28,24,80,,195,21,129,29,1*63
$GPGSV,4,4,13,32,11,142,19,1*58
$BDGSV,4,1,11,40,70,160,,7,65,190,13,6,64,36,,9,60,357,,1*75
$BDGSV,4,2,11,10,56,201,8,20,55,233,12,46,47,304,,37,44,34,,1*7C
$BDGSV,4,3,11,59,41,124,32,28,24,91,,1*49
$BDGSV,4,4,11,40,70,160,21,9*4A
$GNRMC,160700.000,A,2636.36782,N,10639.80881,E,0.597,318.37,270723,,,A,U*32
$GNZDA,160700.000,27,07,2023,00,00*49
$GNTXT,01,01,02,ANT_OPEN,B1,*30
$GNGGA,160701.000,2636.36775,N,10639.80898,E,1,10,3.22,1261.8,M,-26.4,M,,*6D
$GNGSA,A,3,199,27,196,195,32,,,,,,,,4.25,3.22,2.78,1*3A
$GNGSA,A,3,40,07,10,20,59,,,,,,,,4.25,3.22,2.78,4*05
$GPGSV,4,1,13,16,76,318,,193,62,154,,194,55,57,,26,51,27,,1*6B
$GPGSV,4,2,13,199,51,140,23,31,45,52,11,27,41,162,27,4,39,321,,1*5B
$GPGSV,4,3,13,196,34,163,13,3,30,254,13,28,24,80,,195,21,129,29,1*64
$GPGSV,4,4,13,32,11,142,19,1*58
$BDGSV,4,1,11,40,70,160,,7,65,190,13,6,64,36,,9,60,357,,1*75
$BDGSV,4,2,11,10,56,201,8,20,55,233,12,46,47,304,,37,44,34,,1*7C
$BDGSV,4,3,11,59,41,124,32,28,24,91,,1*49
$BDGSV,4,4,11,40,70,160,21,9*4A
$GNRMC,160701.000,A,2636.36775,N,10639.80898,E,0.326,315.31,270723,,,A,U*34
$GNZDA,160701.000,27,07,2023,00,00*48
$GNTXT,01,01,02,ANT_OPEN,B1,*30
$GNGGA,160702.000,2636.36724,N,10639.80949,E,1,10,2.60,1262.6,M,-26.4,M,,*6D
$GNGSA,A,3,199,27,196,03,195,32,,,,,,,3.11,2.60,1.70,1*35
$GNGSA,A,3,40,07,20,59,,,,,,,,,3.11,2.60,1.70,4*08
$GPGSV,4,1,13,16,76,318,,193,62,154,,194,55,57,,26,51,27,,1*6B
$GPGSV,4,2,13,199,51,140,23,31,45,52,10,27,41,162,27,4,39,321,,1*5A
$GPGSV,4,3,13,196,34,163,13,3,30,254,13,28,24,80,,195,21,129,29,1*64
$GPGSV,4,4,13,32,11,142,19,1*58
$BDGSV,4,1,11,40,70,160,,7,65,190,13,6,64,36,,9,60,357,,1*75
$BDGSV,4,2,11,10,56,201,7,20,55,233,12,46,47,304,,37,44,34,,1*73
$BDGSV,4,3,11,59,41,124,33,28,24,91,,1*48
$BDGSV,4,4,11,40,70,160,21,9*4A
$GNRMC,160702.000,A,2636.36724,N,10639.80949,E,0.000,315.31,270723,,,A,U*39
$GNZDA,160702.000,27,07,2023,00,00*4B
$GNTXT,01,01,02,ANT_OPEN,B1,*30
$GNGGA,160703.000,2636.36735,N,10639.80945,E,1,09,3.29,1262.4,M,-26.4,M,,*66
$GNGSA,A,3,199,27,196,195,32,,,,,,,,4.30,3.29,2.78,1*35
$GNGSA,A,3,40,07,20,59,,,,,,,,,4.30,3.29,2.78,4*0B
$GPGSV,4,1,13,16,76,318,,193,62,154,,194,55,57,,26,51,27,,1*6B
$GPGSV,4,2,13,199,51,140,23,31,45,52,10,27,41,162,26,4,39,321,,1*5B
$GPGSV,4,3,13,196,34,163,14,3,30,254,13,28,24,80,,195,21,129,30,1*6B
$GPGSV,4,4,13,32,11,142,19,1*58
$BDGSV,4,1,11,40,70,160,,7,65,190,13,6,64,36,,9,60,357,,1*75
$BDGSV,4,2,11,10,56,201,7,20,55,233,12,46,47,304,,37,44,34,,1*73
$BDGSV,4,3,11,59,41,124,32,28,24,91,,1*49
$BDGSV,4,4,11,40,70,160,21,9*4A
$GNRMC,160703.000,A,2636.36735,N,10639.80945,E,0.000,315.31,270723,,,A,U*34
$GNZDA,160703.000,27,07,2023,00,00*4A
$GNTXT,01,01,02,ANT_OPEN,B1,*30
$GNGGA,160704.000,2636.36735,N,10639.80945,E,1,09,3.29,1262.4,M,-26.4,M,,*61
$GNGSA,A,3,199,27,196,195,32,,,,,,,,4.30,3.29,2.78,1*35
$GNGSA,A,3,40,07,20,59,,,,,,,,,4.30,3.29,2.78,4*0B
$GPGSV,4,1,13,16,76,318,,193,62,154,,194,55,57,,26,51,27,,1*6B
$GPGSV,4,2,13,199,51,140,23,31,45,52,9,27,41,162,27,4,39,321,,1*62
$GPGSV,4,3,13,196,34,163,14,3,30,254,12,28,24,80,,195,21,129,30,1*6A
$GPGSV,4,4,13,32,11,142,19,1*58
$BDGSV,4,1,11,40,70,160,,7,65,190,13,6,64,36,,9,60,357,,1*75
$BDGSV,4,2,11,10,56,201,,20,55,233,12,46,47,304,,37,44,34,,1*44
$BDGSV,4,3,11,59,41,124,33,28,24,91,,1*48
$BDGSV,4,4,11,40,70,160,21,9*4A
$GNRMC,160704.000,A,2636.36735,N,10639.80945,E,0.000,315.31,270723,,,A,U*33
